[
	{"name": "Colonia del Sacramento", "nameascii": "Colonia del Sacramento", "scalerank": 10, "rank_max": 7, "coordinates": [-57.840003, -34.479999]},
	{"name": "Trinidad", "nameascii": "Trinidad", "scalerank": 10, "rank_max": 7, "coordinates": [-56.900997, -33.543999]},
	{"name": "Fray Bentos", "nameascii": "Fray Bentos", "scalerank": 10, "rank_max": 7, "coordinates": [-58.303998, -33.138999]},
	{"name": "Canelones", "nameascii": "Canelones", "scalerank": 10, "rank_max": 6, "coordinates": [-56.284002, -34.538004]},
	{"name": "Florida", "nameascii": "Florida", "scalerank": 10, "rank_max": 7, "coordinates": [-56.214998, -34.099002]},
	{"name": "Bassar", "nameascii": "Bassar", "scalerank": 10, "rank_max": 8, "coordinates": [0.789004, 9.261]},
	{"name": "Sotouboua", "nameascii": "Sotouboua", "scalerank": 10, "rank_max": 7, "coordinates": [0.984997, 8.557002]},
	{"name": "Medenine", "nameascii": "Medenine", "scalerank": 10, "rank_max": 8, "coordinates": [10.4167, 33.399999]},
	{"name": "Kebili", "nameascii": "Kebili", "scalerank": 10, "rank_max": 6, "coordinates": [8.971003, 33.689997]},
	{"name": "Tataouine", "nameascii": "Tataouine", "scalerank": 10, "rank_max": 8, "coordinates": [10.466704, 33.000003]},
	{"name": "L'Ariana", "nameascii": "L'Ariana", "scalerank": 10, "rank_max": 8, "coordinates": [10.199998, 36.866673]},
	{"name": "Jendouba", "nameascii": "Jendouba", "scalerank": 10, "rank_max": 8, "coordinates": [8.749999, 36.500004]},
	{"name": "Kasserine", "nameascii": "Kasserine", "scalerank": 10, "rank_max": 8, "coordinates": [8.716699, 35.216703]},
	{"name": "Sdid Bouzid", "nameascii": "Sdid Bouzid", "scalerank": 10, "rank_max": 7, "coordinates": [9.500005, 35.016696]},
	{"name": "Siliana", "nameascii": "Siliana", "scalerank": 10, "rank_max": 7, "coordinates": [9.383302, 36.083304]},
	{"name": "Mahdia", "nameascii": "Mahdia", "scalerank": 10, "rank_max": 7, "coordinates": [11.040877, 35.483913]},
	{"name": "Monastir", "nameascii": "Monastir", "scalerank": 10, "rank_max": 8, "coordinates": [10.767295, 35.730702]},
	{"name": "Zaghouan", "nameascii": "Zaghouan", "scalerank": 10, "rank_max": 6, "coordinates": [10.146997, 36.399996]},
	{"name": "Tây Ninh", "nameascii": "Tay Ninh", "scalerank": 10, "rank_max": 9, "coordinates": [106.147, 11.322999]},
	{"name": "Luan Chau", "nameascii": "Luan Chau", "scalerank": 10, "rank_max": 5, "coordinates": [103.343005, 21.740004]},
	{"name": "Bắc Kạn", "nameascii": "Bac Kan", "scalerank": 10, "rank_max": 7, "coordinates": [105.833333, 22.133333]},
	{"name": "Lạng Sơn", "nameascii": "Lang Son", "scalerank": 10, "rank_max": 9, "coordinates": [106.757002, 21.845997]},
	{"name": "Sơn La", "nameascii": "Son La", "scalerank": 10, "rank_max": 6, "coordinates": [103.910005, 21.328002]},
	{"name": "Tuyên Quang", "nameascii": "Tuyen Quang", "scalerank": 10, "rank_max": 7, "coordinates": [105.211, 21.817998]},
	{"name": "Yên Bái", "nameascii": "Yen Bai", "scalerank": 10, "rank_max": 8, "coordinates": [104.875003, 21.705003]},
	{"name": "Hai Duong", "nameascii": "Hai Duong", "scalerank": 10, "rank_max": 8, "coordinates": [106.331005, 20.942001]},
	{"name": "Thái Bình", "nameascii": "Thai Binh", "scalerank": 10, "rank_max": 10, "coordinates": [106.33303, 20.450304]},
	{"name": "Tuy Hòa", "nameascii": "Tuy Hoa", "scalerank": 10, "rank_max": 8, "coordinates": [109.315999, 13.082004]},
	{"name": "Thu Dau Mot", "nameascii": "Thu Dau Mot", "scalerank": 10, "rank_max": 10, "coordinates": [106.652746, 10.969074]},
	{"name": "Đông Hà", "nameascii": "Dong Ha", "scalerank": 10, "rank_max": 6, "coordinates": [107.133301, 16.849998]},
	{"name": "Cao Lãnh", "nameascii": "Cao Lanh", "scalerank": 10, "rank_max": 9, "coordinates": [105.635998, 10.467]},
	{"name": "Truc Giang", "nameascii": "Truc Giang", "scalerank": 10, "rank_max": 8, "coordinates": [106.374997, 10.234998]},
	{"name": "Tra Vinh", "nameascii": "Tra Vinh", "scalerank": 10, "rank_max": 9, "coordinates": [106.334002, 9.934002]},
	{"name": "Vĩnh Long", "nameascii": "Vinh Long", "scalerank": 10, "rank_max": 9, "coordinates": [105.964003, 10.256004]},
	{"name": "Cao Bằng", "nameascii": "Cao Bang", "scalerank": 10, "rank_max": 7, "coordinates": [106.268005, 22.663998]},
	{"name": "Yoro", "nameascii": "Yoro", "scalerank": 10, "rank_max": 6, "coordinates": [-87.290001, 15.059997]},
	{"name": "La Esperanza", "nameascii": "La Esperanza", "scalerank": 10, "rank_max": 5, "coordinates": [-88.1667, 14.333004]},
	{"name": "La Paz", "nameascii": "La Paz", "scalerank": 10, "rank_max": 6, "coordinates": [-87.684003, 14.319999]},
	{"name": "Santa Bárbara", "nameascii": "Santa Barbara", "scalerank": 10, "rank_max": 6, "coordinates": [-88.236, 14.919003]},
	{"name": "Gracias", "nameascii": "Gracias", "scalerank": 10, "rank_max": 5, "coordinates": [-88.583301, 14.583303]},
	{"name": "Nueva Ocotepeque", "nameascii": "Nueva Ocotepeque", "scalerank": 10, "rank_max": 5, "coordinates": [-89.181999, 14.436999]},
	{"name": "Yuscarán", "nameascii": "Yuscaran", "scalerank": 10, "rank_max": 4, "coordinates": [-86.850999, 13.943997]},
	{"name": "Jérémie", "nameascii": "Jeremie", "scalerank": 10, "rank_max": 7, "coordinates": [-74.118425, 18.633935]},
	{"name": "Port-De-Paix", "nameascii": "Port-De-Paix", "scalerank": 10, "rank_max": 7, "coordinates": [-72.829485, 19.93176]},
	{"name": "Hinche", "nameascii": "Hinche", "scalerank": 10, "rank_max": 6, "coordinates": [-72.003996, 19.143]},
	{"name": "Fort-Liberté", "nameascii": "Fort-Liberte", "scalerank": 10, "rank_max": 6, "coordinates": [-71.84484, 19.665567]},
	{"name": "Jacmel", "nameascii": "Jacmel", "scalerank": 10, "rank_max": 7, "coordinates": [-72.537003, 18.234999]},
	{"name": "Kırklareli", "nameascii": "Kirklareli", "scalerank": 10, "rank_max": 8, "coordinates": [27.226, 41.742999]},
	{"name": "Bilecik", "nameascii": "Bilecik", "scalerank": 10, "rank_max": 7, "coordinates": [29.982997, 40.149999]},
	{"name": "Sakarya", "nameascii": "Sakarya", "scalerank": 10, "rank_max": 10, "coordinates": [30.400003, 40.766661]},
	{"name": "Kastamonu", "nameascii": "Kastamonu", "scalerank": 10, "rank_max": 8, "coordinates": [33.783004, 41.389002]},
	{"name": "Burdur", "nameascii": "Burdur", "scalerank": 10, "rank_max": 8, "coordinates": [30.283336, 37.71666]},
	{"name": "Kırşehir", "nameascii": "Kirsehir", "scalerank": 10, "rank_max": 8, "coordinates": [34.171003, 39.141999]},
	{"name": "Nevşehir", "nameascii": "Nevsehir", "scalerank": 10, "rank_max": 8, "coordinates": [34.723999, 38.624004]},
	{"name": "Antakya", "nameascii": "Antakya", "scalerank": 10, "rank_max": 9, "coordinates": [36.116677, 36.233334]},
	{"name": "Giresun", "nameascii": "Giresun", "scalerank": 10, "rank_max": 8, "coordinates": [38.390005, 40.913001]},
	{"name": "Sinop", "nameascii": "Sinop", "scalerank": 10, "rank_max": 7, "coordinates": [35.153002, 42.022998]},
	{"name": "Tokat", "nameascii": "Tokat", "scalerank": 10, "rank_max": 9, "coordinates": [36.563005, 40.305996]},
	{"name": "Artvin", "nameascii": "Artvin", "scalerank": 10, "rank_max": 7, "coordinates": [41.817997, 41.183001]},
	{"name": "Bingöl", "nameascii": "Bingol", "scalerank": 10, "rank_max": 8, "coordinates": [40.498003, 38.885004]},
	{"name": "Bitlis", "nameascii": "Bitlis", "scalerank": 10, "rank_max": 8, "coordinates": [42.122998, 38.394]},
	{"name": "Kalangala", "nameascii": "Kalangala", "scalerank": 10, "rank_max": 5, "coordinates": [32.225, -0.308889]},
	{"name": "Çankırı", "nameascii": "Cankiri", "scalerank": 10, "rank_max": 8, "coordinates": [33.621004, 40.607001]},
	{"name": "Niğde", "nameascii": "Nigde", "scalerank": 10, "rank_max": 8, "coordinates": [34.694002, 37.976004]},
	{"name": "Yozgat", "nameascii": "Yozgat", "scalerank": 10, "rank_max": 8, "coordinates": [34.814998, 39.817998]},
	{"name": "Gümüşhane", "nameascii": "Gumushane", "scalerank": 10, "rank_max": 7, "coordinates": [39.484, 40.464]},
	{"name": "Siirt", "nameascii": "Siirt", "scalerank": 10, "rank_max": 9, "coordinates": [41.932999, 37.944]},
	{"name": "Tunceli", "nameascii": "Tunceli", "scalerank": 10, "rank_max": 7, "coordinates": [39.533302, 39.1167]},
	{"name": "Kumi", "nameascii": "Kumi", "scalerank": 10, "rank_max": 6, "coordinates": [33.936111, 1.460833]},
	{"name": "Kaberamaido", "nameascii": "Kaberamaido", "scalerank": 10, "rank_max": 4, "coordinates": [33.159444, 1.738889]},
	{"name": "Kayunga", "nameascii": "Kayunga", "scalerank": 10, "rank_max": 7, "coordinates": [32.888611, 0.7025]},
	{"name": "Iganga", "nameascii": "Iganga", "scalerank": 10, "rank_max": 7, "coordinates": [33.468611, 0.609167]},
	{"name": "Kamuli", "nameascii": "Kamuli", "scalerank": 10, "rank_max": 6, "coordinates": [33.119722, 0.947222]},
	{"name": "Pallisa", "nameascii": "Pallisa", "scalerank": 10, "rank_max": 7, "coordinates": [33.709444, 1.145]},
	{"name": "Mpigi", "nameascii": "Mpigi", "scalerank": 10, "rank_max": 6, "coordinates": [32.313611, 0.225]},
	{"name": "Adjumani", "nameascii": "Adjumani", "scalerank": 10, "rank_max": 7, "coordinates": [31.809722, 3.361389]},
	{"name": "Nebbi", "nameascii": "Nebbi", "scalerank": 10, "rank_max": 7, "coordinates": [31.1025, 2.475833]},
	{"name": "Kiboga", "nameascii": "Kiboga", "scalerank": 10, "rank_max": 6, "coordinates": [31.774167, 0.916111]},
	{"name": "Nakasongola", "nameascii": "Nakasongola", "scalerank": 10, "rank_max": 5, "coordinates": [32.456389, 1.308889]},
	{"name": "Bombo", "nameascii": "Bombo", "scalerank": 10, "rank_max": 8, "coordinates": [32.5333, 0.583299]},
	{"name": "Masindi", "nameascii": "Masindi", "scalerank": 10, "rank_max": 7, "coordinates": [31.715, 1.674444]},
	{"name": "Fort Portal", "nameascii": "Fort Portal", "scalerank": 10, "rank_max": 7, "coordinates": [30.275002, 0.671004]},
	{"name": "Kibale", "nameascii": "Kibale", "scalerank": 10, "rank_max": 5, "coordinates": [31.066667, 0.8]},
	{"name": "Sironko", "nameascii": "Sironko", "scalerank": 10, "rank_max": 6, "coordinates": [34.3, 1.25]},
	{"name": "Busia", "nameascii": "Busia", "scalerank": 10, "rank_max": 7, "coordinates": [34.075833, 0.454444]},
	{"name": "Katakwi", "nameascii": "Katakwi", "scalerank": 10, "rank_max": 5, "coordinates": [33.966111, 1.891111]},
	{"name": "Veszprém", "nameascii": "Veszprem", "scalerank": 10, "rank_max": 8, "coordinates": [17.911, 47.090997]},
	{"name": "Zalaegerszeg", "nameascii": "Zalaegerszeg", "scalerank": 10, "rank_max": 8, "coordinates": [16.84, 46.844001]},
	{"name": "Tatabánya", "nameascii": "Tatabanya", "scalerank": 10, "rank_max": 8, "coordinates": [18.433, 47.549997]},
	{"name": "Szekszárd", "nameascii": "Szekszard", "scalerank": 10, "rank_max": 7, "coordinates": [18.712999, 46.343997]},
	{"name": "Salgótarján", "nameascii": "Salgotarjan", "scalerank": 10, "rank_max": 7, "coordinates": [19.826002, 48.105]},
	{"name": "Békéscsaba", "nameascii": "Bekescsaba", "scalerank": 10, "rank_max": 8, "coordinates": [21.101005, 46.672002]},
	{"name": "Eger", "nameascii": "Eger", "scalerank": 10, "rank_max": 8, "coordinates": [20.383003, 47.895003]},
	{"name": "Ntungamo", "nameascii": "Ntungamo", "scalerank": 10, "rank_max": 6, "coordinates": [30.264167, -0.879444]},
	{"name": "Kisoro", "nameascii": "Kisoro", "scalerank": 10, "rank_max": 6, "coordinates": [29.698333, -1.353889]},
	{"name": "Gikongoro", "nameascii": "Gikongoro", "scalerank": 10, "rank_max": 6, "coordinates": [29.566702, -2.483298]},
	{"name": "Kibuye", "nameascii": "Kibuye", "scalerank": 10, "rank_max": 7, "coordinates": [29.35, -2.050002]},
	{"name": "Kibungo", "nameascii": "Kibungo", "scalerank": 10, "rank_max": 7, "coordinates": [30.533302, -2.166696]},
	{"name": "Târgu Jiu", "nameascii": "Targu Jiu", "scalerank": 10, "rank_max": 8, "coordinates": [23.274001, 45.045]},
	{"name": "Slatina", "nameascii": "Slatina", "scalerank": 10, "rank_max": 8, "coordinates": [24.371002, 44.434998]},
	{"name": "Alexandria", "nameascii": "Alexandria", "scalerank": 10, "rank_max": 7, "coordinates": [25.286707, 43.901631]},
	{"name": "Târgoviște", "nameascii": "Targoviste", "scalerank": 10, "rank_max": 8, "coordinates": [25.459003, 44.937999]},
	{"name": "Giurgiu", "nameascii": "Giurgiu", "scalerank": 10, "rank_max": 8, "coordinates": [25.84, 43.929999]},
	{"name": "Slobozia", "nameascii": "Slobozia", "scalerank": 10, "rank_max": 8, "coordinates": [27.381997, 44.569998]},
	{"name": "Dar'a", "nameascii": "Dar'a", "scalerank": 10, "rank_max": 9, "coordinates": [36.105004, 32.625]},
	{"name": "Delémont", "nameascii": "Delemont", "scalerank": 10, "rank_max": 6, "coordinates": [7.345, 47.369997]},
	{"name": "Neuchâtel", "nameascii": "Neuchatel", "scalerank": 10, "rank_max": 7, "coordinates": [6.922999, 46.998999]},
	{"name": "Aarau", "nameascii": "Aarau", "scalerank": 10, "rank_max": 6, "coordinates": [8.034004, 47.390004]},
	{"name": "Stans", "nameascii": "Stans", "scalerank": 10, "rank_max": 5, "coordinates": [8.383303, 46.950003]},
	{"name": "Sion", "nameascii": "Sion", "scalerank": 10, "rank_max": 7, "coordinates": [7.354, 46.239003]},
	{"name": "Herisau", "nameascii": "Herisau", "scalerank": 10, "rank_max": 6, "coordinates": [9.283303, 47.383299]},
	{"name": "Saint Gallen", "nameascii": "Saint Gallen", "scalerank": 10, "rank_max": 8, "coordinates": [9.361999, 47.422998]},
	{"name": "Bellinzona", "nameascii": "Bellinzona", "scalerank": 10, "rank_max": 6, "coordinates": [9.019999, 46.197]},
	{"name": "Glarus", "nameascii": "Glarus", "scalerank": 10, "rank_max": 5, "coordinates": [9.0667, 47.050002]},
	{"name": "Schaffhausen", "nameascii": "Schaffhausen", "scalerank": 10, "rank_max": 7, "coordinates": [8.632999, 47.706003]},
	{"name": "Schwyz", "nameascii": "Schwyz", "scalerank": 10, "rank_max": 6, "coordinates": [8.648002, 47.019996]},
	{"name": "Frauenfeld", "nameascii": "Frauenfeld", "scalerank": 10, "rank_max": 7, "coordinates": [9.108001, 47.567997]},
	{"name": "Altdorf", "nameascii": "Altdorf", "scalerank": 10, "rank_max": 5, "coordinates": [8.638003, 46.879002]},
	{"name": "Zug", "nameascii": "Zug", "scalerank": 10, "rank_max": 7, "coordinates": [8.487001, 47.178999]},
	{"name": "Falun", "nameascii": "Falun", "scalerank": 10, "rank_max": 7, "coordinates": [15.647005, 60.613002]},
	{"name": "Nyköping", "nameascii": "Nykoping", "scalerank": 10, "rank_max": 7, "coordinates": [17.015005, 58.763997]},
	{"name": "Härnösand", "nameascii": "Harnosand", "scalerank": 10, "rank_max": 6, "coordinates": [17.934004, 62.633997]},
	{"name": "Karlskrona", "nameascii": "Karlskrona", "scalerank": 10, "rank_max": 7, "coordinates": [15.296005, 56.203002]},
	{"name": "Alba Lulia", "nameascii": "Alba Lulia", "scalerank": 10, "rank_max": 8, "coordinates": [23.580001, 46.077003]},
	{"name": "Bistrița", "nameascii": "Bistrita", "scalerank": 10, "rank_max": 8, "coordinates": [24.513004, 47.138004]},
	{"name": "Deva", "nameascii": "Deva", "scalerank": 10, "rank_max": 8, "coordinates": [22.916674, 45.883323]},
	{"name": "Zalău", "nameascii": "Zalau", "scalerank": 10, "rank_max": 8, "coordinates": [23.063005, 47.175003]},
	{"name": "Satu Mare", "nameascii": "Satu Mare", "scalerank": 10, "rank_max": 9, "coordinates": [22.885003, 47.791998]},
	{"name": "Rimnicu Vilcea", "nameascii": "Rimnicu Vilcea", "scalerank": 10, "rank_max": 9, "coordinates": [24.382999, 45.109998]},
	{"name": "Sfintu-Gheorghe", "nameascii": "Sfintu-Gheorghe", "scalerank": 10, "rank_max": 8, "coordinates": [25.793002, 45.867996]},
	{"name": "Miercurea Cuic", "nameascii": "Miercurea Cuic", "scalerank": 10, "rank_max": 7, "coordinates": [25.524001, 46.360998]},
	{"name": "Piatra-Neamt", "nameascii": "Piatra-Neamt", "scalerank": 10, "rank_max": 9, "coordinates": [26.382997, 46.940004]},
	{"name": "Brăila", "nameascii": "Braila", "scalerank": 10, "rank_max": 10, "coordinates": [27.969004, 45.291996]},
	{"name": "Vaslui", "nameascii": "Vaslui", "scalerank": 10, "rank_max": 8, "coordinates": [27.733339, 46.633329]},
	{"name": "Salyan", "nameascii": "Salyan", "scalerank": 10, "rank_max": 6, "coordinates": [82.183303, 28.35]},
	{"name": "Mae Hong Son", "nameascii": "Mae Hong Son", "scalerank": 10, "rank_max": 5, "coordinates": [97.968997, 19.301004]},
	{"name": "Phangnga", "nameascii": "Phangnga", "scalerank": 10, "rank_max": 5, "coordinates": [98.533999, 8.451]},
	{"name": "Ranong", "nameascii": "Ranong", "scalerank": 10, "rank_max": 7, "coordinates": [98.638003, 9.962001]},
	{"name": "Krabi", "nameascii": "Krabi", "scalerank": 10, "rank_max": 7, "coordinates": [98.911999, 8.052003]},
	{"name": "Phatthalung", "nameascii": "Phatthalung", "scalerank": 10, "rank_max": 7, "coordinates": [100.081, 7.614999]},
	{"name": "Satun", "nameascii": "Satun", "scalerank": 10, "rank_max": 7, "coordinates": [100.066699, 6.616701]},
	{"name": "Lamphun", "nameascii": "Lamphun", "scalerank": 10, "rank_max": 6, "coordinates": [99.073999, 18.503001]},
	{"name": "Kamphaeng Phet", "nameascii": "Kamphaeng Phet", "scalerank": 10, "rank_max": 8, "coordinates": [99.529003, 16.472997]},
	{"name": "Phichit", "nameascii": "Phichit", "scalerank": 10, "rank_max": 7, "coordinates": [100.349002, 16.439004]},
	{"name": "Phetchabun", "nameascii": "Phetchabun", "scalerank": 10, "rank_max": 8, "coordinates": [101.159002, 16.418997]},
	{"name": "Supham Buri", "nameascii": "Supham Buri", "scalerank": 10, "rank_max": 8, "coordinates": [100.128997, 14.471001]},
	{"name": "Ang Thong", "nameascii": "Ang Thong", "scalerank": 10, "rank_max": 6, "coordinates": [100.45, 14.583303]},
	{"name": "Chainat", "nameascii": "Chainat", "scalerank": 10, "rank_max": 6, "coordinates": [100.126, 15.179004]},
	{"name": "Nakhon Nayok", "nameascii": "Nakhon Nayok", "scalerank": 10, "rank_max": 7, "coordinates": [101.215999, 14.200002]},
	{"name": "Sing Buri", "nameascii": "Sing Buri", "scalerank": 10, "rank_max": 7, "coordinates": [100.401004, 14.886999]},
	{"name": "Nakhon Pathom", "nameascii": "Nakhon Pathom", "scalerank": 10, "rank_max": 9, "coordinates": [100.063999, 13.817997]},
	{"name": "Prachuap Khiri Khan", "nameascii": "Prachuap Khiri Khan", "scalerank": 10, "rank_max": 7, "coordinates": [99.800002, 11.802996]},
	{"name": "Samut Sakhon", "nameascii": "Samut Sakhon", "scalerank": 10, "rank_max": 8, "coordinates": [100.274005, 13.536]},
	{"name": "Samut Songkhram", "nameascii": "Samut Songkhram", "scalerank": 10, "rank_max": 7, "coordinates": [100.000999, 13.412997]},
	{"name": "Yasothon", "nameascii": "Yasothon", "scalerank": 10, "rank_max": 7, "coordinates": [104.150998, 15.787998]},
	{"name": "Chachoengsao", "nameascii": "Chachoengsao", "scalerank": 10, "rank_max": 7, "coordinates": [101.076004, 13.679001]},
	{"name": "Trat", "nameascii": "Trat", "scalerank": 10, "rank_max": 7, "coordinates": [102.509002, 12.237003]},
	{"name": "Kalasin", "nameascii": "Kalasin", "scalerank": 10, "rank_max": 8, "coordinates": [103.509001, 16.427997]},
	{"name": "Maha Sarakham", "nameascii": "Maha Sarakham", "scalerank": 10, "rank_max": 8, "coordinates": [103.298005, 16.183998]},
	{"name": "Roi Et", "nameascii": "Roi Et", "scalerank": 10, "rank_max": 7, "coordinates": [103.654999, 16.050996]},
	{"name": "Pattani", "nameascii": "Pattani", "scalerank": 10, "rank_max": 9, "coordinates": [101.250001, 6.864003]},
	{"name": "Piggs Peak", "nameascii": "Piggs Peak", "scalerank": 10, "rank_max": 5, "coordinates": [31.247002, -25.961004]},
	{"name": "Siteki", "nameascii": "Siteki", "scalerank": 10, "rank_max": 5, "coordinates": [31.951999, -26.454996]},
	{"name": "Manzini", "nameascii": "Manzini", "scalerank": 10, "rank_max": 9, "coordinates": [31.388005, -26.495001]},
	{"name": "Hlatikulu", "nameascii": "Hlatikulu", "scalerank": 10, "rank_max": 4, "coordinates": [31.416697, -27]},
	{"name": "Somoto", "nameascii": "Somoto", "scalerank": 10, "rank_max": 7, "coordinates": [-86.582997, 13.475997]},
	{"name": "Ocotal", "nameascii": "Ocotal", "scalerank": 10, "rank_max": 7, "coordinates": [-86.472999, 13.629996]},
	{"name": "Aveiro", "nameascii": "Aveiro", "scalerank": 10, "rank_max": 8, "coordinates": [-8.650998, 40.641003]},
	{"name": "Leiria", "nameascii": "Leiria", "scalerank": 10, "rank_max": 7, "coordinates": [-8.804997, 39.738996]},
	{"name": "Viana Do Castelo", "nameascii": "Viana Do Castelo", "scalerank": 10, "rank_max": 6, "coordinates": [-8.844138, 41.696235]},
	{"name": "Mérida", "nameascii": "Merida", "scalerank": 10, "rank_max": 8, "coordinates": [-6.337998, 38.912004]},
	{"name": "Beja", "nameascii": "Beja", "scalerank": 10, "rank_max": 7, "coordinates": [-7.863002, 38.014002]},
	{"name": "Évora", "nameascii": "Evora", "scalerank": 10, "rank_max": 8, "coordinates": [-7.905996, 38.559996]},
	{"name": "Portalegre", "nameascii": "Portalegre", "scalerank": 10, "rank_max": 6, "coordinates": [-7.423002, 39.290004]},
	{"name": "Santarém", "nameascii": "Santarem", "scalerank": 10, "rank_max": 7, "coordinates": [-8.682003, 39.231]},
	{"name": "Bragança", "nameascii": "Braganca", "scalerank": 10, "rank_max": 7, "coordinates": [-6.755003, 41.807997]},
	{"name": "Castelo Branco", "nameascii": "Castelo Branco", "scalerank": 10, "rank_max": 7, "coordinates": [-7.488, 39.810996]},
	{"name": "Guarda", "nameascii": "Guarda", "scalerank": 10, "rank_max": 7, "coordinates": [-7.262001, 40.541004]},
	{"name": "Viseu", "nameascii": "Viseu", "scalerank": 10, "rank_max": 7, "coordinates": [-7.91, 40.656996]},
	{"name": "Vila Real", "nameascii": "Vila Real", "scalerank": 10, "rank_max": 6, "coordinates": [-7.737003, 41.293998]},
	{"name": "Fatick", "nameascii": "Fatick", "scalerank": 10, "rank_max": 7, "coordinates": [-16.416, 14.344002]},
	{"name": "An Nabk", "nameascii": "An Nabk", "scalerank": 10, "rank_max": 5, "coordinates": [37.333297, 31.333302]},
	{"name": "Assen", "nameascii": "Assen", "scalerank": 10, "rank_max": 8, "coordinates": [6.550003, 53.000001]},
	{"name": "Arnhem", "nameascii": "Arnhem", "scalerank": 10, "rank_max": 9, "coordinates": [5.923, 51.987996]},
	{"name": "Maastricht", "nameascii": "Maastricht", "scalerank": 10, "rank_max": 9, "coordinates": [5.677003, 50.852997]},
	{"name": "Zwolle", "nameascii": "Zwolle", "scalerank": 10, "rank_max": 9, "coordinates": [6.096997, 52.524]},
	{"name": "Middelburg", "nameascii": "Middelburg", "scalerank": 10, "rank_max": 7, "coordinates": [3.61, 51.501996]},
	{"name": "'s-Hertogenbosch", "nameascii": "'s-Hertogenbosch", "scalerank": 10, "rank_max": 9, "coordinates": [5.316661, 51.683337]},
	{"name": "Arendal", "nameascii": "Arendal", "scalerank": 10, "rank_max": 7, "coordinates": [8.766001, 58.464756]},
	{"name": "Vossavangen", "nameascii": "Vossavangen", "scalerank": 10, "rank_max": 5, "coordinates": [6.441004, 60.630003]},
	{"name": "Leikanger", "nameascii": "Leikanger", "scalerank": 10, "rank_max": 3, "coordinates": [6.85, 61.183296]},
	{"name": "Bærum", "nameascii": "Baerum", "scalerank": 10, "rank_max": 9, "coordinates": [11.347237, 59.913486]},
	{"name": "Hamar", "nameascii": "Hamar", "scalerank": 10, "rank_max": 7, "coordinates": [11.069002, 60.820002]},
	{"name": "Tønsberg", "nameascii": "Tonsberg", "scalerank": 10, "rank_max": 7, "coordinates": [10.421002, 59.264001]},
	{"name": "Baglung", "nameascii": "Baglung", "scalerank": 10, "rank_max": 7, "coordinates": [83.583298, 28.266696]},
	{"name": "Jumla", "nameascii": "Jumla", "scalerank": 10, "rank_max": 5, "coordinates": [82.216702, 29.25]},
	{"name": "Bhairawa", "nameascii": "Bhairawa", "scalerank": 10, "rank_max": 8, "coordinates": [83.3833, 27.533304]},
	{"name": "Dandeldhura", "nameascii": "Dandeldhura", "scalerank": 10, "rank_max": 6, "coordinates": [80.600005, 29.300004]},
	{"name": "Dhangarhi", "nameascii": "Dhangarhi", "scalerank": 10, "rank_max": 8, "coordinates": [80.593003, 28.694997]},
	{"name": "Ramechhap", "nameascii": "Ramechhap", "scalerank": 10, "rank_max": 6, "coordinates": [86.086999, 27.325998]},
	{"name": "Bhimphedi", "nameascii": "Bhimphedi", "scalerank": 10, "rank_max": 6, "coordinates": [85.130002, 27.550998]},
	{"name": "Rajbiraj", "nameascii": "Rajbiraj", "scalerank": 10, "rank_max": 7, "coordinates": [86.733298, 26.533296]},
	{"name": "Ilam", "nameascii": "Ilam", "scalerank": 10, "rank_max": 6, "coordinates": [87.926005, 26.908002]},
	{"name": "Wabag", "nameascii": "Wabag", "scalerank": 10, "rank_max": 4, "coordinates": [143.718004, -5.49]},
	{"name": "Vanimo", "nameascii": "Vanimo", "scalerank": 10, "rank_max": 6, "coordinates": [141.303997, -2.690001]},
	{"name": "Kundiawa", "nameascii": "Kundiawa", "scalerank": 10, "rank_max": 5, "coordinates": [144.960013, -6.022998]},
	{"name": "Kerema", "nameascii": "Kerema", "scalerank": 10, "rank_max": 5, "coordinates": [145.837999, -7.927002]},
	{"name": "Arawa", "nameascii": "Arawa", "scalerank": 10, "rank_max": 7, "coordinates": [155.565991, -6.228]},
	{"name": "Lorengau", "nameascii": "Lorengau", "scalerank": 10, "rank_max": 5, "coordinates": [147.279997, -2.032002]},
	{"name": "Kimbe", "nameascii": "Kimbe", "scalerank": 10, "rank_max": 6, "coordinates": [150.143014, -5.550003]},
	{"name": "Dubăsari", "nameascii": "Dubasari", "scalerank": 10, "rank_max": 7, "coordinates": [29.160833, 47.263056]},
	{"name": "Qacha's Nek", "nameascii": "Qacha's Nek", "scalerank": 10, "rank_max": 7, "coordinates": [28.702, -30.117267]},
	{"name": "Hudur", "nameascii": "Hudur", "scalerank": 10, "rank_max": 3, "coordinates": [43.866703, 4.183299]},
	{"name": "Garbahaarey", "nameascii": "Garbahaarey", "scalerank": 10, "rank_max": 6, "coordinates": [42.227002, 3.327003]},
	{"name": "Bu'aale", "nameascii": "Bu'aale", "scalerank": 10, "rank_max": 3, "coordinates": [42.583303, 1.083303]},
	{"name": "Dhuusa Mareeb", "nameascii": "Dhuusa Mareeb", "scalerank": 10, "rank_max": 2, "coordinates": [46.508005, 5.742]},
	{"name": "Trincomalee", "nameascii": "Trincomalee", "scalerank": 10, "rank_max": 9, "coordinates": [81.233002, 8.568999]},
	{"name": "Puttalan", "nameascii": "Puttalan", "scalerank": 10, "rank_max": 7, "coordinates": [79.826005, 8.033004]},
	{"name": "Ratnapura", "nameascii": "Ratnapura", "scalerank": 10, "rank_max": 7, "coordinates": [80.386003, 6.693003]},
	{"name": "Umuahia", "nameascii": "Umuahia", "scalerank": 10, "rank_max": 10, "coordinates": [7.486003, 5.532003]},
	{"name": "Uyo", "nameascii": "Uyo", "scalerank": 10, "rank_max": 11, "coordinates": [7.849999, 5.007996]},
	{"name": "Owerri", "nameascii": "Owerri", "scalerank": 10, "rank_max": 10, "coordinates": [7.026004, 5.492997]},
	{"name": "Sariwon", "nameascii": "Sariwon", "scalerank": 10, "rank_max": 9, "coordinates": [125.762005, 38.507004]},
	{"name": "Sin-Ni", "nameascii": "Sin-Ni", "scalerank": 10, "rank_max": 6, "coordinates": [125.463997, 39.488004]},
	{"name": "Suchboatar", "nameascii": "Suchboatar", "scalerank": 10, "rank_max": 7, "coordinates": [106.200001, 50.249997]},
	{"name": "Dzuunmod", "nameascii": "Dzuunmod", "scalerank": 10, "rank_max": 6, "coordinates": [106.947001, 47.710998]},
	{"name": "Omaruru", "nameascii": "Omaruru", "scalerank": 10, "rank_max": 6, "coordinates": [15.950998, -21.436002]},
	{"name": "Karibib", "nameascii": "Karibib", "scalerank": 10, "rank_max": 5, "coordinates": [15.852997, -21.939003]},
	{"name": "Otavi", "nameascii": "Otavi", "scalerank": 10, "rank_max": 4, "coordinates": [17.342002, -19.639998]},
	{"name": "Gobabis", "nameascii": "Gobabis", "scalerank": 10, "rank_max": 6, "coordinates": [18.963001, -22.455]},
	{"name": "Wete", "nameascii": "Wete", "scalerank": 10, "rank_max": 7, "coordinates": [39.725799, -5.063464]},
	{"name": "Kibaha", "nameascii": "Kibaha", "scalerank": 10, "rank_max": 7, "coordinates": [38.916703, -6.766704]},
	{"name": "Mkokotoni", "nameascii": "Mkokotoni", "scalerank": 10, "rank_max": 4, "coordinates": [39.259999, -5.878998]},
	{"name": "Fribourg", "nameascii": "Fribourg", "scalerank": 10, "rank_max": 7, "coordinates": [7.149997, 46.8]},
	{"name": "Liestal", "nameascii": "Liestal", "scalerank": 10, "rank_max": 6, "coordinates": [7.737004, 47.483001]},
	{"name": "Solothurn", "nameascii": "Solothurn", "scalerank": 10, "rank_max": 6, "coordinates": [7.536997, 47.212002]},
	{"name": "Sarnen", "nameascii": "Sarnen", "scalerank": 10, "rank_max": 5, "coordinates": [8.243002, 46.899]},
	{"name": "Mariestad", "nameascii": "Mariestad", "scalerank": 10, "rank_max": 6, "coordinates": [13.827997, 58.705002]},
	{"name": "Vannersborg", "nameascii": "Vannersborg", "scalerank": 10, "rank_max": 7, "coordinates": [12.330001, 58.363002]},
	{"name": "Appenzell", "nameascii": "Appenzell", "scalerank": 10, "rank_max": 5, "coordinates": [9.416701, 47.333304]},
	{"name": "Ros Comain", "nameascii": "Ros Comain", "scalerank": 10, "rank_max": 4, "coordinates": [-8.183333, 53.633333]},
	{"name": "Cacheu", "nameascii": "Cacheu", "scalerank": 10, "rank_max": 6, "coordinates": [-16.164999, 12.268998]},
	{"name": "Farim", "nameascii": "Farim", "scalerank": 10, "rank_max": 5, "coordinates": [-15.227, 12.492999]},
	{"name": "Fulacunda", "nameascii": "Fulacunda", "scalerank": 10, "rank_max": 3, "coordinates": [-15.194997, 11.772999]},
	{"name": "Gabú", "nameascii": "Gabu", "scalerank": 10, "rank_max": 6, "coordinates": [-14.234004, 12.279996]},
	{"name": "Catió", "nameascii": "Catio", "scalerank": 10, "rank_max": 5, "coordinates": [-15.166701, 11.2167]},
	{"name": "Barclayville", "nameascii": "Barclayville", "scalerank": 10, "rank_max": 4, "coordinates": [-8.166699, 4.799997]},
	{"name": "Voinjama", "nameascii": "Voinjama", "scalerank": 10, "rank_max": 7, "coordinates": [-9.749997, 8.416701]},
	{"name": "Bensonville", "nameascii": "Bensonville", "scalerank": 10, "rank_max": 4, "coordinates": [-10.600002, 6.433299]},
	{"name": "Kakata", "nameascii": "Kakata", "scalerank": 10, "rank_max": 7, "coordinates": [-10.349001, 6.525999]},
	{"name": "Sanniquellie", "nameascii": "Sanniquellie", "scalerank": 10, "rank_max": 6, "coordinates": [-8.685, 7.371]},
	{"name": "Rivercess", "nameascii": "Rivercess", "scalerank": 10, "rank_max": 4, "coordinates": [-9.577997, 5.464998]},
	{"name": "Potenza", "nameascii": "Potenza", "scalerank": 10, "rank_max": 8, "coordinates": [15.798997, 40.642002]},
	{"name": "Campobasso", "nameascii": "Campobasso", "scalerank": 10, "rank_max": 8, "coordinates": [14.655997, 41.562999]},
	{"name": "Al Mafraq", "nameascii": "Al Mafraq", "scalerank": 10, "rank_max": 8, "coordinates": [36.233299, 32.283297]},
	{"name": "At Tafilah", "nameascii": "At Tafilah", "scalerank": 10, "rank_max": 7, "coordinates": [35.600005, 30.833334]},
	{"name": "Ma'an", "nameascii": "Ma'an", "scalerank": 10, "rank_max": 8, "coordinates": [35.736004, 30.192003]},
	{"name": "Aosta", "nameascii": "Aosta", "scalerank": 10, "rank_max": 7, "coordinates": [7.315003, 45.737001]},
	{"name": "Diekirch", "nameascii": "Diekirch", "scalerank": 10, "rank_max": 5, "coordinates": [6.166702, 49.883301]},
	{"name": "Grevenmacher", "nameascii": "Grevenmacher", "scalerank": 10, "rank_max": 4, "coordinates": [6.333301, 49.699998]},
	{"name": "Kangar", "nameascii": "Kangar", "scalerank": 10, "rank_max": 8, "coordinates": [100.189999, 6.433002]},
	{"name": "Kuala Lipis", "nameascii": "Kuala Lipis", "scalerank": 10, "rank_max": 6, "coordinates": [102.042001, 4.184001]},
	{"name": "Shah Alam", "nameascii": "Shah Alam", "scalerank": 10, "rank_max": 10, "coordinates": [101.549998, 3.066696]},
	{"name": "Nyeri", "nameascii": "Nyeri", "scalerank": 10, "rank_max": 8, "coordinates": [36.951004, -0.416997]},
	{"name": "Teyateyaneng", "nameascii": "Teyateyaneng", "scalerank": 10, "rank_max": 5, "coordinates": [27.753004, -29.152998]},
	{"name": "Mohales Hoek", "nameascii": "Mohales Hoek", "scalerank": 10, "rank_max": 7, "coordinates": [27.479998, -30.159]},
	{"name": "Moyeni", "nameascii": "Moyeni", "scalerank": 10, "rank_max": 7, "coordinates": [27.716005, -30.411]},
	{"name": "Hlotse", "nameascii": "Hlotse", "scalerank": 10, "rank_max": 7, "coordinates": [28.055998, -28.878003]},
	{"name": "Butha-Buthe", "nameascii": "Butha-Buthe", "scalerank": 10, "rank_max": 6, "coordinates": [28.250002, -28.749996]},
	{"name": "Mokhotlong", "nameascii": "Mokhotlong", "scalerank": 10, "rank_max": 5, "coordinates": [29.078002, -29.291004]},
	{"name": "Ahuachapán", "nameascii": "Ahuachapan", "scalerank": 10, "rank_max": 7, "coordinates": [-89.845002, 13.919004]},
	{"name": "Cojutepeque", "nameascii": "Cojutepeque", "scalerank": 10, "rank_max": 7, "coordinates": [-88.933302, 13.716702]},
	{"name": "Nueva San Salvador", "nameascii": "Nueva San Salvador", "scalerank": 10, "rank_max": 9, "coordinates": [-89.289999, 13.673997]},
	{"name": "Zacatecoluca", "nameascii": "Zacatecoluca", "scalerank": 10, "rank_max": 7, "coordinates": [-88.867998, 13.508001]},
	{"name": "La Unión", "nameascii": "La Union", "scalerank": 10, "rank_max": 7, "coordinates": [-87.839001, 13.331997]},
	{"name": "San Francisco Gotera", "nameascii": "San Francisco Gotera", "scalerank": 10, "rank_max": 6, "coordinates": [-88.100001, 13.699998]},
	{"name": "San Vicente", "nameascii": "San Vicente", "scalerank": 10, "rank_max": 7, "coordinates": [-88.785, 13.641003]},
	{"name": "Usulután", "nameascii": "Usulutan", "scalerank": 10, "rank_max": 8, "coordinates": [-88.432002, 13.346001]},
	{"name": "Chalatenango", "nameascii": "Chalatenango", "scalerank": 10, "rank_max": 7, "coordinates": [-89.093997, 14.072004]},
	{"name": "Lucea", "nameascii": "Lucea", "scalerank": 10, "rank_max": 5, "coordinates": [-78.179004, 18.442998]},
	{"name": "Mandeville", "nameascii": "Mandeville", "scalerank": 10, "rank_max": 7, "coordinates": [-77.499999, 18.033003]},
	{"name": "Black River", "nameascii": "Black River", "scalerank": 10, "rank_max": 4, "coordinates": [-77.851998, 18.030996]},
	{"name": "Falmouth", "nameascii": "Falmouth", "scalerank": 10, "rank_max": 5, "coordinates": [-77.65605, 18.479583]},
	{"name": "Savanna-la-Mar", "nameascii": "Savanna-la-Mar", "scalerank": 10, "rank_max": 7, "coordinates": [-77.948001, 18.163998]},
	{"name": "Port Antonio", "nameascii": "Port Antonio", "scalerank": 10, "rank_max": 6, "coordinates": [-76.380003, 18.159003]},
	{"name": "Saint Ann's Bay", "nameascii": "St. Ann's Bay", "scalerank": 10, "rank_max": 6, "coordinates": [-77.199525, 18.432639]},
	{"name": "Port Maria", "nameascii": "Port Maria", "scalerank": 10, "rank_max": 5, "coordinates": [-76.899996, 18.377001]},
	{"name": "Half Way Tree", "nameascii": "Half Way Tree", "scalerank": 10, "rank_max": 8, "coordinates": [-76.799997, 18.0333]},
	{"name": "Port Morant", "nameascii": "Port Morant", "scalerank": 10, "rank_max": 6, "coordinates": [-76.329, 17.891001]},
	{"name": "Sabaneta", "nameascii": "Sabaneta", "scalerank": 10, "rank_max": 6, "coordinates": [-71.344989, 19.504998]},
	{"name": "Mao", "nameascii": "Mao", "scalerank": 10, "rank_max": 7, "coordinates": [-71.074998, 19.551996]},
	{"name": "Cotuí", "nameascii": "Cotui", "scalerank": 10, "rank_max": 7, "coordinates": [-70.152003, 19.059003]},
	{"name": "Evinayong", "nameascii": "Evinayong", "scalerank": 10, "rank_max": 5, "coordinates": [10.566703, 1.449999]},
	{"name": "Luba", "nameascii": "Luba", "scalerank": 10, "rank_max": 5, "coordinates": [8.550001, 3.449997]},
	{"name": "Šibenik", "nameascii": "Sibenik", "scalerank": 10, "rank_max": 7, "coordinates": [15.905833, 43.727222]},
	{"name": "Shibin el Kom", "nameascii": "Shibin el Kom", "scalerank": 10, "rank_max": 9, "coordinates": [30.899998, 30.591999]},
	{"name": "Benha", "nameascii": "Benha", "scalerank": 10, "rank_max": 9, "coordinates": [31.183336, 30.466665]},
	{"name": "Zagazig", "nameascii": "Zagazig", "scalerank": 10, "rank_max": 10, "coordinates": [31.51666, 30.583332]},
	{"name": "Kafr el Sheikh", "nameascii": "Kafr el Sheikh", "scalerank": 10, "rank_max": 9, "coordinates": [30.935998, 31.109004]},
	{"name": "Dikhil", "nameascii": "Dikhil", "scalerank": 10, "rank_max": 6, "coordinates": [42.372001, 11.104002]},
	{"name": "Tadjoura", "nameascii": "Tadjoura", "scalerank": 10, "rank_max": 7, "coordinates": [42.900004, 11.783304]},
	{"name": "Haapsalu", "nameascii": "Haapsalu", "scalerank": 10, "rank_max": 6, "coordinates": [23.541389, 58.943056]},
	{"name": "Hawalli", "nameascii": "Hawalli", "scalerank": 10, "rank_max": 9, "coordinates": [47.999998, 29.33334]},
	{"name": "Buluko", "nameascii": "Buluko", "scalerank": 10, "rank_max": 3, "coordinates": [28.528003, -0.756999]},
	{"name": "Mzimba", "nameascii": "Mzimba", "scalerank": 10, "rank_max": 6, "coordinates": [33.6, -11.9]},
	{"name": "Machinga", "nameascii": "Machinga", "scalerank": 10, "rank_max": 3, "coordinates": [35.516667, -14.966667]},
	{"name": "Dedza", "nameascii": "Dedza", "scalerank": 10, "rank_max": 6, "coordinates": [34.333333, -14.366667]},
	{"name": "Mchinji", "nameascii": "Mchinji", "scalerank": 10, "rank_max": 6, "coordinates": [32.9, -13.8]},
	{"name": "Ntcheu", "nameascii": "Ntcheu", "scalerank": 10, "rank_max": 6, "coordinates": [34.633333, -14.816667]},
	{"name": "Chiradzulu", "nameascii": "Chiradzulu", "scalerank": 10, "rank_max": 3, "coordinates": [35.183333, -15.7]},
	{"name": "Nsanje", "nameascii": "Nsanje", "scalerank": 10, "rank_max": 7, "coordinates": [35.266667, -16.916667]},
	{"name": "Mwanza", "nameascii": "Mwanza", "scalerank": 10, "rank_max": 6, "coordinates": [34.516667, -15.616667]},
	{"name": "Mulanje", "nameascii": "Mulanje", "scalerank": 10, "rank_max": 6, "coordinates": [35.5, -16.033333]},
	{"name": "Salamá", "nameascii": "Salama", "scalerank": 10, "rank_max": 7, "coordinates": [-90.314001, 15.102999]},
	{"name": "Retalhuleu", "nameascii": "Retalhuleu", "scalerank": 10, "rank_max": 7, "coordinates": [-91.677015, 14.537097]},
	{"name": "San Marcos", "nameascii": "San Marcos", "scalerank": 10, "rank_max": 7, "coordinates": [-91.8, 14.966001]},
	{"name": "Chimaltenango", "nameascii": "Chimaltenango", "scalerank": 10, "rank_max": 8, "coordinates": [-90.819999, 14.661999]},
	{"name": "Antigua Guatemala", "nameascii": "Antigua Guatemala", "scalerank": 10, "rank_max": 7, "coordinates": [-90.733302, 14.566698]},
	{"name": "Sololá", "nameascii": "Solola", "scalerank": 10, "rank_max": 7, "coordinates": [-91.182996, 14.772996]},
	{"name": "Totonicapán", "nameascii": "Totonicapan", "scalerank": 10, "rank_max": 8, "coordinates": [-91.358001, 14.913999]},
	{"name": "El Progreso", "nameascii": "El Progreso", "scalerank": 10, "rank_max": 9, "coordinates": [-90.016704, 14.85]},
	{"name": "Cuilapa", "nameascii": "Cuilapa", "scalerank": 10, "rank_max": 6, "coordinates": [-90.297999, 14.279004]},
	{"name": "Chiquimula", "nameascii": "Chiquimula", "scalerank": 10, "rank_max": 7, "coordinates": [-89.543997, 14.796999]},
	{"name": "Jalapa", "nameascii": "Jalapa", "scalerank": 10, "rank_max": 7, "coordinates": [-89.989002, 14.633001]},
	{"name": "Zacapa", "nameascii": "Zacapa", "scalerank": 10, "rank_max": 7, "coordinates": [-89.529003, 14.972004]},
	{"name": "Puerto Plata", "nameascii": "Puerto Plata", "scalerank": 10, "rank_max": 9, "coordinates": [-70.690248, 19.790217]},
	{"name": "Dajabón", "nameascii": "Dajabon", "scalerank": 10, "rank_max": 6, "coordinates": [-71.704998, 19.548]},
	{"name": "Moca", "nameascii": "Moca", "scalerank": 10, "rank_max": 8, "coordinates": [-70.523001, 19.396998]},
	{"name": "Salcedo", "nameascii": "Salcedo", "scalerank": 10, "rank_max": 7, "coordinates": [-70.416702, 19.383003]},
	{"name": "Jimaní", "nameascii": "Jimani", "scalerank": 10, "rank_max": 5, "coordinates": [-71.850996, 18.493002]},
	{"name": "Comendador", "nameascii": "Comendador", "scalerank": 10, "rank_max": 7, "coordinates": [-71.706996, 18.875997]},
	{"name": "Pedernales", "nameascii": "Pedernales", "scalerank": 10, "rank_max": 6, "coordinates": [-71.740998, 18.037998]},
	{"name": "Azua", "nameascii": "Azua", "scalerank": 10, "rank_max": 8, "coordinates": [-70.729002, 18.453996]},
	{"name": "Bonao", "nameascii": "Bonao", "scalerank": 10, "rank_max": 8, "coordinates": [-70.408998, 18.942003]},
	{"name": "Baní", "nameascii": "Bani", "scalerank": 10, "rank_max": 8, "coordinates": [-70.331004, 18.279999]},
	{"name": "Hato Mayor", "nameascii": "Hato Mayor", "scalerank": 10, "rank_max": 7, "coordinates": [-69.256998, 18.764001]},
	{"name": "Monte Plata", "nameascii": "Monte Plata", "scalerank": 10, "rank_max": 6, "coordinates": [-69.784002, 18.807003]},
	{"name": "Nagua", "nameascii": "Nagua", "scalerank": 10, "rank_max": 7, "coordinates": [-69.847002, 19.376001]},
	{"name": "Samaná", "nameascii": "Samana", "scalerank": 10, "rank_max": 6, "coordinates": [-69.332004, 19.212003]},
	{"name": "San Cristóbal", "nameascii": "San Cristobal", "scalerank": 10, "rank_max": 9, "coordinates": [-70.109001, 18.415998]},
	{"name": "El Seibo", "nameascii": "El Seibo", "scalerank": 10, "rank_max": 7, "coordinates": [-69.035004, 18.764001]},
	{"name": "Higuey", "nameascii": "Higuey", "scalerank": 10, "rank_max": 9, "coordinates": [-68.707998, 18.615996]},
	{"name": "Georgetown", "nameascii": "Georgetown", "scalerank": 10, "rank_max": 4, "coordinates": [-14.767002, 13.551003]},
	{"name": "Basse Santa Su", "nameascii": "Basse Santa Su", "scalerank": 10, "rank_max": 6, "coordinates": [-14.222997, 13.310001]},
	{"name": "Kerewan", "nameascii": "Kerewan", "scalerank": 10, "rank_max": 4, "coordinates": [-16.094997, 13.493997]},
	{"name": "Mansa Konko", "nameascii": "Mansa Konko", "scalerank": 10, "rank_max": 6, "coordinates": [-15.678566, 13.377312]},
	{"name": "Sunyani", "nameascii": "Sunyani", "scalerank": 10, "rank_max": 8, "coordinates": [-2.336003, 7.335999]},
	{"name": "Ebebiyín", "nameascii": "Ebebiyin", "scalerank": 10, "rank_max": 7, "coordinates": [11.330002, 2.152998]},
	{"name": "Viljandi", "nameascii": "Viljandi", "scalerank": 10, "rank_max": 7, "coordinates": [25.59, 58.363889]},
	{"name": "Tchibanga", "nameascii": "Tchibanga", "scalerank": 10, "rank_max": 6, "coordinates": [11.026999, -2.856996]},
	{"name": "Madingou", "nameascii": "Madingou", "scalerank": 10, "rank_max": 7, "coordinates": [13.554001, -4.164003]},
	{"name": "Lamia", "nameascii": "Lamia", "scalerank": 10, "rank_max": 7, "coordinates": [22.434004, 38.898999]},
	{"name": "Polygyros", "nameascii": "Polygyros", "scalerank": 10, "rank_max": 5, "coordinates": [23.453002, 40.381002]},
	{"name": "Komatini", "nameascii": "Komatini", "scalerank": 10, "rank_max": 7, "coordinates": [25.416703, 41.133303]},
	{"name": "B'abda", "nameascii": "B'abda", "scalerank": 10, "rank_max": 5, "coordinates": [35.533297, 33.833304]},
	{"name": "Ramla", "nameascii": "Ramla", "scalerank": 10, "rank_max": 8, "coordinates": [34.866703, 31.9167]},
	{"name": "Nabatiye et Tahta", "nameascii": "Nabatiye et Tahta", "scalerank": 10, "rank_max": 8, "coordinates": [35.450002, 33.383304]},
	{"name": "Mariehamn", "nameascii": "Mariehamn", "scalerank": 10, "rank_max": 6, "coordinates": [19.949005, 60.096996]},
	{"name": "Hämeenlinna", "nameascii": "Hameenlinna", "scalerank": 10, "rank_max": 7, "coordinates": [24.472, 60.996996]},
	{"name": "Kouvola", "nameascii": "Kouvola", "scalerank": 10, "rank_max": 7, "coordinates": [26.709004, 60.876]},
	{"name": "Mikkeli", "nameascii": "Mikkeli", "scalerank": 10, "rank_max": 7, "coordinates": [27.285004, 61.689996]},
	{"name": "Ban Houayxay", "nameascii": "Ban Houayxay", "scalerank": 10, "rank_max": 5, "coordinates": [100.412778, 20.2775]},
	{"name": "Louang Namtha", "nameascii": "Louang Namtha", "scalerank": 10, "rank_max": 4, "coordinates": [101.416699, 20.950002]},
	{"name": "Champasak", "nameascii": "Champasak", "scalerank": 10, "rank_max": 6, "coordinates": [105.866704, 14.8833]},
	{"name": "Saravan", "nameascii": "Saravan", "scalerank": 10, "rank_max": 5, "coordinates": [106.426999, 15.715998]},
	{"name": "Xam Nua", "nameascii": "Xam Nua", "scalerank": 10, "rank_max": 7, "coordinates": [104.033305, 20.416698]},
	{"name": "Phongsali", "nameascii": "Phongsali", "scalerank": 10, "rank_max": 5, "coordinates": [102.099997, 21.683304]},
	{"name": "Attapu", "nameascii": "Attapu", "scalerank": 10, "rank_max": 4, "coordinates": [106.839001, 14.807997]},
	{"name": "Kinkala", "nameascii": "Kinkala", "scalerank": 10, "rank_max": 6, "coordinates": [14.761999, -4.356]},
	{"name": "Muineachan", "nameascii": "Muineachan", "scalerank": 10, "rank_max": 5, "coordinates": [-6.966667, 54.25]},
	{"name": "Vejle", "nameascii": "Vejle", "scalerank": 10, "rank_max": 8, "coordinates": [9.534997, 55.709001]},
	{"name": "Hillerød", "nameascii": "Hillerod", "scalerank": 10, "rank_max": 7, "coordinates": [12.316699, 55.933299]},
	{"name": "Sorø", "nameascii": "Soro", "scalerank": 10, "rank_max": 5, "coordinates": [11.566702, 55.432998]},
	{"name": "Mali", "nameascii": "Mali", "scalerank": 10, "rank_max": 5, "coordinates": [-12.301001, 12.084003]},
	{"name": "Tongue", "nameascii": "Tongue", "scalerank": 10, "rank_max": 7, "coordinates": [-11.670003, 11.439999]},
	{"name": "Kouroussa", "nameascii": "Kouroussa", "scalerank": 10, "rank_max": 6, "coordinates": [-9.891999, 10.653003]},
	{"name": "Pita", "nameascii": "Pita", "scalerank": 10, "rank_max": 7, "coordinates": [-12.401001, 11.079999]},
	{"name": "Dalaba", "nameascii": "Dalaba", "scalerank": 10, "rank_max": 5, "coordinates": [-12.272004, 10.656]},
	{"name": "Boffa", "nameascii": "Boffa", "scalerank": 10, "rank_max": 4, "coordinates": [-14.042996, 10.185003]},
	{"name": "Koundara", "nameascii": "Koundara", "scalerank": 10, "rank_max": 6, "coordinates": [-13.295996, 12.480003]},
	{"name": "Gaoual", "nameascii": "Gaoual", "scalerank": 10, "rank_max": 5, "coordinates": [-13.212998, 11.754]},
	{"name": "Télimélé", "nameascii": "Telimele", "scalerank": 10, "rank_max": 7, "coordinates": [-13.042998, 10.905003]},
	{"name": "Forecariah", "nameascii": "Forecariah", "scalerank": 10, "rank_max": 6, "coordinates": [-13.097997, 9.430002]},
	{"name": "Beyla", "nameascii": "Beyla", "scalerank": 10, "rank_max": 6, "coordinates": [-8.657001, 8.686998]},
	{"name": "Gueckedou", "nameascii": "Gueckedou", "scalerank": 10, "rank_max": 10, "coordinates": [-10.151001, 8.553996]},
	{"name": "Dinguiraye", "nameascii": "Dinguiraye", "scalerank": 10, "rank_max": 5, "coordinates": [-10.726001, 11.298996]},
	{"name": "Dabola", "nameascii": "Dabola", "scalerank": 10, "rank_max": 6, "coordinates": [-11.108997, 10.747998]},
	{"name": "Touba", "nameascii": "Touba", "scalerank": 10, "rank_max": 7, "coordinates": [-7.684002, 8.28]},
	{"name": "Bouaflé", "nameascii": "Bouafle", "scalerank": 10, "rank_max": 8, "coordinates": [-5.748002, 6.977997]},
	{"name": "Divo", "nameascii": "Divo", "scalerank": 10, "rank_max": 9, "coordinates": [-5.360004, 5.839002]},
	{"name": "Toumodi", "nameascii": "Toumodi", "scalerank": 10, "rank_max": 7, "coordinates": [-5.019002, 6.552]},
	{"name": "Aboisso", "nameascii": "Aboisso", "scalerank": 10, "rank_max": 7, "coordinates": [-3.200004, 5.466699]},
	{"name": "Santa Cruz Del Quiche", "nameascii": "Santa Cruz Del Quiche", "scalerank": 10, "rank_max": 7, "coordinates": [-91.133298, 15.033303]},
	{"name": "Buea", "nameascii": "Buea", "scalerank": 10, "rank_max": 8, "coordinates": [9.231004, 4.155003]},
	{"name": "Krujë", "nameascii": "Kruje", "scalerank": 10, "rank_max": 7, "coordinates": [19.797004, 41.518998]},
	{"name": "Fier", "nameascii": "Fier", "scalerank": 10, "rank_max": 8, "coordinates": [19.573003, 40.730004]},
	{"name": "Lushnjë", "nameascii": "Lushnje", "scalerank": 10, "rank_max": 7, "coordinates": [19.716004, 40.940001]},
	{"name": "Pukë", "nameascii": "Puke", "scalerank": 10, "rank_max": 5, "coordinates": [19.883305, 42.033303]},
	{"name": "Bajram Curri", "nameascii": "Bajram Curri", "scalerank": 10, "rank_max": 5, "coordinates": [20.083303, 42.3333]},
	{"name": "Kukës", "nameascii": "Kukes", "scalerank": 10, "rank_max": 6, "coordinates": [20.433997, 42.083001]},
	{"name": "Sarandë", "nameascii": "Sarande", "scalerank": 10, "rank_max": 6, "coordinates": [19.999999, 39.877002]},
	{"name": "Ersekë", "nameascii": "Erseke", "scalerank": 10, "rank_max": 5, "coordinates": [20.683297, 40.333302]},
	{"name": "Pogradec", "nameascii": "Pogradec", "scalerank": 10, "rank_max": 7, "coordinates": [20.664001, 40.899996]},
	{"name": "Korçë", "nameascii": "Korce", "scalerank": 10, "rank_max": 8, "coordinates": [20.766664, 40.616676]},
	{"name": "Berat", "nameascii": "Berat", "scalerank": 10, "rank_max": 7, "coordinates": [19.972, 40.709997]},
	{"name": "Çorovodë", "nameascii": "Corovode", "scalerank": 10, "rank_max": 6, "coordinates": [20.233297, 40.516704]},
	{"name": "Gramsh", "nameascii": "Gramsh", "scalerank": 10, "rank_max": 6, "coordinates": [20.199997, 40.866696]},
	{"name": "Librazhd", "nameascii": "Librazhd", "scalerank": 10, "rank_max": 6, "coordinates": [20.366704, 41.200002]},
	{"name": "Tepelenë", "nameascii": "Tepelene", "scalerank": 10, "rank_max": 6, "coordinates": [20.033299, 40.283298]},
	{"name": "Përmet", "nameascii": "Permet", "scalerank": 10, "rank_max": 6, "coordinates": [20.351998, 40.233996]},
	{"name": "Gjirokastër", "nameascii": "Gjirokaster", "scalerank": 10, "rank_max": 7, "coordinates": [20.149003, 40.078998]},
	{"name": "Peshkopi", "nameascii": "Peshkopi", "scalerank": 10, "rank_max": 6, "coordinates": [20.433304, 41.683302]},
	{"name": "Burrel", "nameascii": "Burrel", "scalerank": 10, "rank_max": 6, "coordinates": [20.016001, 41.625999]},
	{"name": "Lezhë", "nameascii": "Lezhe", "scalerank": 10, "rank_max": 6, "coordinates": [19.654003, 41.787999]},
	{"name": "Rrëshen", "nameascii": "Rreshen", "scalerank": 10, "rank_max": 6, "coordinates": [19.816705, 41.783301]},
	{"name": "Ashtarak", "nameascii": "Ashtarak", "scalerank": 10, "rank_max": 6, "coordinates": [44.359167, 40.301667]},
	{"name": "Mons", "nameascii": "Mons", "scalerank": 10, "rank_max": 8, "coordinates": [3.939004, 50.445999]},
	{"name": "Hasselt", "nameascii": "Hasselt", "scalerank": 10, "rank_max": 8, "coordinates": [5.483998, 50.964003]},
	{"name": "Ijevan", "nameascii": "Ijevan", "scalerank": 10, "rank_max": 6, "coordinates": [45.149167, 40.875556]},
	{"name": "Artashat", "nameascii": "Artashat", "scalerank": 10, "rank_max": 7, "coordinates": [44.550556, 39.953889]},
	{"name": "Gavarr", "nameascii": "Gavarr", "scalerank": 10, "rank_max": 7, "coordinates": [45.126667, 40.358889]},
	{"name": "Gadabay", "nameascii": "Gadabay", "scalerank": 10, "rank_max": 5, "coordinates": [45.816111, 40.565556]},
	{"name": "Goranboy", "nameascii": "Goranboy", "scalerank": 10, "rank_max": 5, "coordinates": [46.789722, 40.610278]},
	{"name": "Tovuz", "nameascii": "Tovuz", "scalerank": 10, "rank_max": 6, "coordinates": [45.628889, 40.992222]},
	{"name": "Agdam", "nameascii": "Agdam", "scalerank": 10, "rank_max": 0, "coordinates": [45.556389, 40.905278]},
	{"name": "Qabala", "nameascii": "Qabala", "scalerank": 10, "rank_max": 6, "coordinates": [47.845833, 40.981389]},
	{"name": "Oğuz", "nameascii": "Oguz", "scalerank": 10, "rank_max": 5, "coordinates": [47.458333, 41.070833]},
	{"name": "Yeghegnadzor", "nameascii": "Yeghegnadzor", "scalerank": 10, "rank_max": 5, "coordinates": [45.333333, 39.761111]},
	{"name": "Qala i Naw", "nameascii": "Qala i Naw", "scalerank": 10, "rank_max": 4, "coordinates": [63.1333, 34.983]},
	{"name": "Chaghcharan", "nameascii": "Chaghcharan", "scalerank": 10, "rank_max": 6, "coordinates": [65.250001, 34.516701]},
	{"name": "Lashkar Gah", "nameascii": "Lashkar Gah", "scalerank": 10, "rank_max": 10, "coordinates": [64.36, 31.582998]},
	{"name": "Zaranj", "nameascii": "Zaranj", "scalerank": 10, "rank_max": 7, "coordinates": [61.886998, 31.112001]},
	{"name": "Tarin Kowt", "nameascii": "Tarin Kowt", "scalerank": 10, "rank_max": 5, "coordinates": [65.866699, 32.633298]},
	{"name": "Zareh Sharan", "nameascii": "Zareh Sharan", "scalerank": 10, "rank_max": 6, "coordinates": [68.416705, 32.85]},
	{"name": "Asadabad", "nameascii": "Asadabad", "scalerank": 10, "rank_max": 7, "coordinates": [71.150005, 34.866]},
	{"name": "Taloqan", "nameascii": "Taloqan", "scalerank": 10, "rank_max": 8, "coordinates": [69.540004, 36.729999]},
	{"name": "Mahmud-E Eraqi", "nameascii": "Mahmud-E Eraqi", "scalerank": 10, "rank_max": 5, "coordinates": [69.333301, 35.016696]},
	{"name": "Mehtar Lam", "nameascii": "Mehtar Lam", "scalerank": 10, "rank_max": 6, "coordinates": [70.166701, 34.65]},
	{"name": "Baraki Barak", "nameascii": "Baraki Barak", "scalerank": 10, "rank_max": 7, "coordinates": [68.966704, 33.966702]},
	{"name": "Aybak", "nameascii": "Aybak", "scalerank": 10, "rank_max": 7, "coordinates": [68.040001, 36.261]},
	{"name": "Mayda Shahr", "nameascii": "Mayda Shahr", "scalerank": 10, "rank_max": 7, "coordinates": [68.799997, 34.450002]},
	{"name": "Kampong Spoe", "nameascii": "Kampong Spoe", "scalerank": 10, "rank_max": 7, "coordinates": [104.518999, 11.451996]},
	{"name": "Kampong Thum", "nameascii": "Kampong Thum", "scalerank": 10, "rank_max": 6, "coordinates": [104.888998, 12.711996]},
	{"name": "Prey Veng", "nameascii": "Prey Veng", "scalerank": 10, "rank_max": 8, "coordinates": [105.324004, 11.484]},
	{"name": "Phnum Tbeng Meanchey", "nameascii": "Phnum Tbeng Meanchey", "scalerank": 10, "rank_max": 7, "coordinates": [104.966704, 13.816701]},
	{"name": "Stoeng Treng", "nameascii": "Stoeng Treng", "scalerank": 10, "rank_max": 7, "coordinates": [105.974002, 13.523004]},
	{"name": "Kracheh", "nameascii": "Kracheh", "scalerank": 10, "rank_max": 6, "coordinates": [106.023997, 12.468996]},
	{"name": "Senmonorom", "nameascii": "Senmonorom", "scalerank": 10, "rank_max": 5, "coordinates": [107.2, 12.449997]},
	{"name": "Lumphat", "nameascii": "Lumphat", "scalerank": 10, "rank_max": 6, "coordinates": [106.981003, 13.507002]},
	{"name": "Svay Rieng", "nameascii": "Svay Rieng", "scalerank": 10, "rank_max": 7, "coordinates": [105.801004, 11.079999]},
	{"name": "Jijel", "nameascii": "Jijel", "scalerank": 10, "rank_max": 9, "coordinates": [5.766004, 36.821997]},
	{"name": "Lokossa", "nameascii": "Lokossa", "scalerank": 10, "rank_max": 8, "coordinates": [1.715005, 6.615]},
	{"name": "Fada Ngourma", "nameascii": "Fada Ngourma", "scalerank": 10, "rank_max": 7, "coordinates": [0.361, 12.054996]},
	{"name": "Tizi-Ouzou", "nameascii": "Tizi-Ouzou", "scalerank": 10, "rank_max": 9, "coordinates": [4.046144, 36.71171]},
	{"name": "Bordj Bou Arréridj", "nameascii": "Bordj Bou Arreridj", "scalerank": 10, "rank_max": 9, "coordinates": [4.764662, 36.077709]},
	{"name": "M'sila", "nameascii": "M'sila", "scalerank": 10, "rank_max": 9, "coordinates": [4.545001, 35.700003]},
	{"name": "Guelma", "nameascii": "Guelma", "scalerank": 10, "rank_max": 9, "coordinates": [7.427998, 36.466002]},
	{"name": "Oum el Bouaghi", "nameascii": "Oum el Bouaghi", "scalerank": 10, "rank_max": 9, "coordinates": [7.149997, 35.849997]},
	{"name": "Lovec", "nameascii": "Lovec", "scalerank": 10, "rank_max": 7, "coordinates": [24.719005, 43.137999]},
	{"name": "Montana", "nameascii": "Montana", "scalerank": 10, "rank_max": 7, "coordinates": [23.237002, 43.414002]},
	{"name": "Razgrad", "nameascii": "Razgrad", "scalerank": 10, "rank_max": 7, "coordinates": [26.535997, 43.533999]},
	{"name": "Arlon", "nameascii": "Arlon", "scalerank": 10, "rank_max": 7, "coordinates": [5.816701, 49.683303]},
	{"name": "Bregenz", "nameascii": "Bregenz", "scalerank": 10, "rank_max": 7, "coordinates": [9.766702, 47.516697]},
	{"name": "Eisenstadt", "nameascii": "Eisenstadt", "scalerank": 10, "rank_max": 6, "coordinates": [16.533298, 47.833299]},
	{"name": "Paro", "nameascii": "Paro", "scalerank": 10, "rank_max": 6, "coordinates": [89.416777, 27.42937]},
	{"name": "Punakha", "nameascii": "Punakha", "scalerank": 10, "rank_max": 4, "coordinates": [89.864135, 27.584154]},
	{"name": "Loikaw", "nameascii": "Loikaw", "scalerank": 10, "rank_max": 6, "coordinates": [97.206004, 19.665]},
	{"name": "Wangdue Prodrang", "nameascii": "Wangdue Prodrang", "scalerank": 10, "rank_max": 4, "coordinates": [89.916697, 27.433296]},
	{"name": "Cankuzo", "nameascii": "Cankuzo", "scalerank": 10, "rank_max": 5, "coordinates": [30.516697, -3.166704]},
	{"name": "Karusi", "nameascii": "Karusi", "scalerank": 10, "rank_max": 6, "coordinates": [30.162997, -3.099996]},
	{"name": "Rutana", "nameascii": "Rutana", "scalerank": 10, "rank_max": 7, "coordinates": [29.993005, -3.931002]},
	{"name": "Ruyigi", "nameascii": "Ruyigi", "scalerank": 10, "rank_max": 7, "coordinates": [30.243997, -3.481002]},
	{"name": "Bubanza", "nameascii": "Bubanza", "scalerank": 10, "rank_max": 6, "coordinates": [29.366704, -3.083301]},
	{"name": "Kayanza", "nameascii": "Kayanza", "scalerank": 10, "rank_max": 6, "coordinates": [29.566702, -2.899998]},
	{"name": "Makamba", "nameascii": "Makamba", "scalerank": 10, "rank_max": 6, "coordinates": [29.8, -4.133304]},
	{"name": "Ngozi", "nameascii": "Ngozi", "scalerank": 10, "rank_max": 7, "coordinates": [29.825002, -2.912004]},
	{"name": "Kirundo", "nameascii": "Kirundo", "scalerank": 10, "rank_max": 5, "coordinates": [30.097222, -2.584722]},
	{"name": "Orodara", "nameascii": "Orodara", "scalerank": 10, "rank_max": 6, "coordinates": [-4.907997, 10.973997]},
	{"name": "Solenzo", "nameascii": "Solenzo", "scalerank": 10, "rank_max": 6, "coordinates": [-4.083333, 12.183333]},
	{"name": "Nouna", "nameascii": "Nouna", "scalerank": 10, "rank_max": 7, "coordinates": [-3.860001, 12.728997]},
	{"name": "Dédougou", "nameascii": "Dedougou", "scalerank": 10, "rank_max": 7, "coordinates": [-3.464, 12.455001]},
	{"name": "Gorom Gorom", "nameascii": "Gorom Gorom", "scalerank": 10, "rank_max": 5, "coordinates": [-0.233298, 14.450004]},
	{"name": "Djibo", "nameascii": "Djibo", "scalerank": 10, "rank_max": 7, "coordinates": [-1.627001, 14.099004]},
	{"name": "Tougan", "nameascii": "Tougan", "scalerank": 10, "rank_max": 6, "coordinates": [-3.069998, 13.068999]},
	{"name": "Kombissiri", "nameascii": "Kombissiri", "scalerank": 10, "rank_max": 7, "coordinates": [-1.333998, 12.063996]},
	{"name": "Ziniaré", "nameascii": "Ziniare", "scalerank": 10, "rank_max": 6, "coordinates": [-1.293002, 12.576996]},
	{"name": "Yako", "nameascii": "Yako", "scalerank": 10, "rank_max": 7, "coordinates": [-2.262996, 12.953997]},
	{"name": "Réo", "nameascii": "Reo", "scalerank": 10, "rank_max": 7, "coordinates": [-2.466945, 12.333492]},
	{"name": "Leo", "nameascii": "Leo", "scalerank": 10, "rank_max": 7, "coordinates": [-2.097999, 11.094003]},
	{"name": "Sapouy", "nameascii": "Sapouy", "scalerank": 10, "rank_max": 4, "coordinates": [-1.773611, 11.554444]},
	{"name": "Boulsa", "nameascii": "Boulsa", "scalerank": 10, "rank_max": 6, "coordinates": [-0.568998, 12.656997]},
	{"name": "Zorgo", "nameascii": "Zorgo", "scalerank": 10, "rank_max": 7, "coordinates": [-0.611, 12.242997]},
	{"name": "Koupéla", "nameascii": "Koupela", "scalerank": 10, "rank_max": 7, "coordinates": [-0.356004, 12.177]},
	{"name": "Pô", "nameascii": "Po", "scalerank": 10, "rank_max": 6, "coordinates": [-1.134999, 11.169]},
	{"name": "Manga", "nameascii": "Manga", "scalerank": 10, "rank_max": 6, "coordinates": [-1.064996, 11.662002]},
	{"name": "Diébougou", "nameascii": "Diebougou", "scalerank": 10, "rank_max": 6, "coordinates": [-3.248, 10.952001]},
	{"name": "Gaoua", "nameascii": "Gaoua", "scalerank": 10, "rank_max": 7, "coordinates": [-3.174002, 10.324998]},
	{"name": "Bogandé", "nameascii": "Bogande", "scalerank": 10, "rank_max": 5, "coordinates": [-0.137997, 12.969]},
	{"name": "Dori", "nameascii": "Dori", "scalerank": 10, "rank_max": 7, "coordinates": [-0.027999, 14.033997]},
	{"name": "Sebba", "nameascii": "Sebba", "scalerank": 10, "rank_max": 4, "coordinates": [0.530443, 13.436412]},
	{"name": "Diapaga", "nameascii": "Diapaga", "scalerank": 10, "rank_max": 7, "coordinates": [1.796005, 12.077001]},
	{"name": "Pa-an", "nameascii": "Pa-an", "scalerank": 10, "rank_max": 7, "coordinates": [97.616701, 16.849998]},
	{"name": "Hakha", "nameascii": "Hakha", "scalerank": 10, "rank_max": 6, "coordinates": [93.616705, 22.650003]},
	{"name": "Taunggyi", "nameascii": "Taunggyi", "scalerank": 10, "rank_max": 9, "coordinates": [97.038001, 20.781999]},
	{"name": "Sagaing", "nameascii": "Sagaing", "scalerank": 10, "rank_max": 8, "coordinates": [95.961997, 21.879999]},
	{"name": "Muramvya", "nameascii": "Muramvya", "scalerank": 10, "rank_max": 6, "coordinates": [29.611999, -3.260997]},
	{"name": "Larnaka", "nameascii": "Larnaka", "scalerank": 10, "rank_max": 7, "coordinates": [33.635998, 34.917003]},
	{"name": "Paphos", "nameascii": "Paphos", "scalerank": 10, "rank_max": 7, "coordinates": [32.422457, 34.755915]},
	{"name": "Laascaanood", "nameascii": "Laascaanood", "scalerank": 10, "rank_max": 8, "coordinates": [47.3167, 8.433297]},
	{"name": "Ceerigaabo", "nameascii": "Ceerigaabo", "scalerank": 10, "rank_max": 9, "coordinates": [47.333305, 10.583298]},
	{"name": "Santo António", "nameascii": "Santo Antonio", "scalerank": 10, "rank_max": 3, "coordinates": [7.412005, 1.645002]},
	{"name": "Daru", "nameascii": "Daru", "scalerank": 10, "rank_max": 6, "coordinates": [143.233723, -9.109152]},
	{"name": "Ramallah", "nameascii": "Ramallah", "scalerank": 10, "rank_max": 7, "coordinates": [35.206209, 31.902945]},
	{"name": "Kyrenia", "nameascii": "Kyrenia", "scalerank": 10, "rank_max": 7, "coordinates": [33.333004, 35.325999]},
	{"name": "San Carlos", "nameascii": "San Carlos", "scalerank": 9, "rank_max": 8, "coordinates": [-68.589999, 9.657999]},
	{"name": "San Felipe", "nameascii": "San Felipe", "scalerank": 9, "rank_max": 8, "coordinates": [-68.745996, 10.335996]},
	{"name": "San Juan De Los Morros", "nameascii": "San Juan De Los Morros", "scalerank": 9, "rank_max": 8, "coordinates": [-67.354002, 9.900999]},
	{"name": "La Asunción", "nameascii": "La Asuncion", "scalerank": 9, "rank_max": 7, "coordinates": [-63.883332, 11.033334]},
	{"name": "Al Bayda", "nameascii": "Al Bayda", "scalerank": 9, "rank_max": 7, "coordinates": [45.574003, 13.978998]},
	{"name": "'Ataq", "nameascii": "'Ataq", "scalerank": 9, "rank_max": 7, "coordinates": [46.800001, 14.550003]},
	{"name": "Marib", "nameascii": "Marib", "scalerank": 9, "rank_max": 6, "coordinates": [45.334, 15.420996]},
	{"name": "Roatán", "nameascii": "Roatan", "scalerank": 9, "rank_max": 5, "coordinates": [-86.518998, 16.329996]},
	{"name": "Borgarnes", "nameascii": "Borgarnes", "scalerank": 9, "rank_max": 3, "coordinates": [-21.862322, 64.569503]},
	{"name": "San Carlos", "nameascii": "San Carlos", "scalerank": 9, "rank_max": 6, "coordinates": [-84.775859, 11.189359]},
	{"name": "Onverwacht", "nameascii": "Onverwacht", "scalerank": 9, "rank_max": 4, "coordinates": [-55.199997, 5.599998]},
	{"name": "Groningen", "nameascii": "Groningen", "scalerank": 9, "rank_max": 4, "coordinates": [-55.481004, 5.796999]},
	{"name": "Leninobod", "nameascii": "Leninobod", "scalerank": 9, "rank_max": 6, "coordinates": [69.000004, 39.750003]},
	{"name": "Mariscal Estigarribia", "nameascii": "Mariscal Estigarribia", "scalerank": 9, "rank_max": 4, "coordinates": [-60.609996, -22.030002]},
	{"name": "Caacupé", "nameascii": "Caacupe", "scalerank": 9, "rank_max": 7, "coordinates": [-57.140001, -25.387002]},
	{"name": "Jinotepe", "nameascii": "Jinotepe", "scalerank": 9, "rank_max": 7, "coordinates": [-86.194998, 11.845998]},
	{"name": "Jinotega", "nameascii": "Jinotega", "scalerank": 9, "rank_max": 8, "coordinates": [-86.000004, 13.091004]},
	{"name": "Masaya", "nameascii": "Masaya", "scalerank": 9, "rank_max": 9, "coordinates": [-86.094999, 11.969001]},
	{"name": "Sakakah", "nameascii": "Sakakah", "scalerank": 9, "rank_max": 9, "coordinates": [40.133305, 29.999997]},
	{"name": "Bentiu", "nameascii": "Bentiu", "scalerank": 9, "rank_max": 5, "coordinates": [29.833333, 9.233333]},
	{"name": "El Porvenir", "nameascii": "El Porvenir", "scalerank": 9, "rank_max": 1, "coordinates": [-78.971963, 9.541686]},
	{"name": "Nazran", "nameascii": "Nazran", "scalerank": 9, "rank_max": 8, "coordinates": [44.783002, 43.233003]},
	{"name": "Ust' Ordynskiy", "nameascii": "Ust' Ordynskiy", "scalerank": 9, "rank_max": 6, "coordinates": [104.699998, 52.832997]},
	{"name": "Dutse", "nameascii": "Dutse", "scalerank": 9, "rank_max": 6, "coordinates": [9.350335, 11.799189]},
	{"name": "Damaturu", "nameascii": "Damaturu", "scalerank": 9, "rank_max": 10, "coordinates": [11.966005, 11.748996]},
	{"name": "Puyo", "nameascii": "Puyo", "scalerank": 9, "rank_max": 7, "coordinates": [-77.986998, -1.483002]},
	{"name": "Heredia", "nameascii": "Heredia", "scalerank": 9, "rank_max": 7, "coordinates": [-84.120003, 9.991998]},
	{"name": "Tulcán", "nameascii": "Tulcan", "scalerank": 9, "rank_max": 8, "coordinates": [-77.732001, 0.821997]},
	{"name": "Yopal", "nameascii": "Yopal", "scalerank": 9, "rank_max": 8, "coordinates": [-72.405999, 5.346999]},
	{"name": "Klaksvík", "nameascii": "Klaksvik", "scalerank": 9, "rank_max": 4, "coordinates": [-6.539012, 62.237478]},
	{"name": "Laï", "nameascii": "Lai", "scalerank": 9, "rank_max": 6, "coordinates": [16.305004, 9.395001]},
	{"name": "Mainz", "nameascii": "Mainz", "scalerank": 9, "rank_max": 9, "coordinates": [8.273219, 49.982473]},
	{"name": "Usti Nad Labem", "nameascii": "Usti Nad Labem", "scalerank": 9, "rank_max": 8, "coordinates": [14.081005, 50.662998]},
	{"name": "Hradec Králové", "nameascii": "Hradec Kralove", "scalerank": 9, "rank_max": 8, "coordinates": [15.812002, 50.205996]},
	{"name": "Fderik", "nameascii": "Fderik", "scalerank": 9, "rank_max": 5, "coordinates": [-12.707001, 22.679001]},
	{"name": "Aleg", "nameascii": "Aleg", "scalerank": 9, "rank_max": 5, "coordinates": [-13.908996, 17.057997]},
	{"name": "Akjoujt", "nameascii": "Akjoujt", "scalerank": 9, "rank_max": 2, "coordinates": [-14.391, 19.746999]},
	{"name": "Duhok", "nameascii": "Dahuk", "scalerank": 9, "rank_max": 11, "coordinates": [43.000003, 36.8667]},
	{"name": "Samarra", "nameascii": "Samarra", "scalerank": 9, "rank_max": 9, "coordinates": [43.875001, 34.193997]},
	{"name": "Awasa", "nameascii": "Awasa", "scalerank": 9, "rank_max": 9, "coordinates": [38.476999, 7.059996]},
	{"name": "Gore", "nameascii": "Gore", "scalerank": 9, "rank_max": 5, "coordinates": [35.537005, 8.148996]},
	{"name": "Schwerin", "nameascii": "Schwerin", "scalerank": 9, "rank_max": 8, "coordinates": [11.416699, 53.633304]},
	{"name": "Turgay", "nameascii": "Turgay", "scalerank": 9, "rank_max": 5, "coordinates": [63.498997, 49.626]},
	{"name": "Yasuj", "nameascii": "Yasuj", "scalerank": 9, "rank_max": 8, "coordinates": [51.594004, 30.659004]},
	{"name": "Shahrekord", "nameascii": "Shar e Kord", "scalerank": 9, "rank_max": 9, "coordinates": [50.853997, 32.320998]},
	{"name": "Mangyshlak", "nameascii": "Mangyshlak", "scalerank": 9, "rank_max": 9, "coordinates": [51.141736, 43.690455]},
	{"name": "Panaji", "nameascii": "Panaji", "scalerank": 9, "rank_max": 8, "coordinates": [73.818001, 15.491997]},
	{"name": "Mobaye", "nameascii": "Mobaye", "scalerank": 9, "rank_max": 6, "coordinates": [21.179998, 4.32]},
	{"name": "El Cayo", "nameascii": "El Cayo", "scalerank": 9, "rank_max": 6, "coordinates": [-89.061003, 17.155998]},
	{"name": "Corozal", "nameascii": "Corozal", "scalerank": 9, "rank_max": 5, "coordinates": [-88.388001, 18.397998]},
	{"name": "Mochudi", "nameascii": "Mochudi", "scalerank": 9, "rank_max": 7, "coordinates": [26.152003, -24.377004]},
	{"name": "San Andrés", "nameascii": "San Andres", "scalerank": 9, "rank_max": 8, "coordinates": [-81.690327, 12.562137]},
	{"name": "Bade", "nameascii": "Bade", "scalerank": 9, "rank_max": 9, "coordinates": [121.298889, 24.9575]},
	{"name": "Pingzhen", "nameascii": "Pingzhen", "scalerank": 9, "rank_max": 10, "coordinates": [121.216111, 24.943889]},
	{"name": "Taibao", "nameascii": "Taibao", "scalerank": 9, "rank_max": 7, "coordinates": [120.333333, 23.45]},
	{"name": "Taoyuan", "nameascii": "Taoyuan", "scalerank": 8, "rank_max": 10, "coordinates": [121.311111, 24.988889]},
	{"name": "Yangmei", "nameascii": "Yangmei", "scalerank": 9, "rank_max": 9, "coordinates": [121.15, 24.916667]},
	{"name": "Yilan", "nameascii": "Yilan", "scalerank": 8, "rank_max": 9, "coordinates": [121.75, 24.75]},
	{"name": "Zhubei", "nameascii": "Zhubei", "scalerank": 9, "rank_max": 9, "coordinates": [121.011944, 24.833333]},
	{"name": "Greymouth", "nameascii": "Greymouth", "scalerank": 9, "rank_max": 6, "coordinates": [171.223143, -42.471645]},
	{"name": "Artigas", "nameascii": "Artigas", "scalerank": 8, "rank_max": 7, "coordinates": [-56.48602, -30.415987]},
	{"name": "Baltasar Brum", "nameascii": "Baltasar Brum", "scalerank": 8, "rank_max": 4, "coordinates": [-57.319974, -30.730025]},
	{"name": "Tranqueras", "nameascii": "Tranqueras", "scalerank": 8, "rank_max": 5, "coordinates": [-55.749967, -31.200022]},
	{"name": "Tacuarembó", "nameascii": "Tacuarembo", "scalerank": 8, "rank_max": 8, "coordinates": [-55.980005, -31.709965]},
	{"name": "Paso de los Toros", "nameascii": "Paso de los Toros", "scalerank": 8, "rank_max": 6, "coordinates": [-56.51005, -32.810001]},
	{"name": "Vergara", "nameascii": "Vergara", "scalerank": 8, "rank_max": 4, "coordinates": [-53.949999, -32.929994]},
	{"name": "Treinta y Tres", "nameascii": "Treinta y Tres", "scalerank": 8, "rank_max": 7, "coordinates": [-54.380025, -33.230027]},
	{"name": "Santa Lucía", "nameascii": "Santa Lucia", "scalerank": 8, "rank_max": 6, "coordinates": [-56.399979, -34.470003]},
	{"name": "José Batlle y Ordóñez", "nameascii": "Jose Batlle y Ordonez", "scalerank": 8, "rank_max": 4, "coordinates": [-55.120005, -33.470013]},
	{"name": "Minas", "nameascii": "Minas", "scalerank": 8, "rank_max": 7, "coordinates": [-55.230025, -34.370009]},
	{"name": "Maldonado", "nameascii": "Maldonado", "scalerank": 8, "rank_max": 8, "coordinates": [-54.959989, -34.910028]},
	{"name": "Punta del Este", "nameascii": "Punta del Este", "scalerank": 8, "rank_max": 9, "coordinates": [-54.94999, -34.969973]},
	{"name": "Aiguá", "nameascii": "Aigua", "scalerank": 8, "rank_max": 4, "coordinates": [-54.750002, -34.199994]},
	{"name": "La Paloma", "nameascii": "La Paloma", "scalerank": 8, "rank_max": 4, "coordinates": [-54.169986, -34.669991]},
	{"name": "Faribault", "nameascii": "Faribault", "scalerank": 8, "rank_max": 7, "coordinates": [-93.268013, 44.290487]},
	{"name": "Mankato", "nameascii": "Mankato", "scalerank": 8, "rank_max": 8, "coordinates": [-93.999157, 44.163621]},
	{"name": "Albert Lea", "nameascii": "Albert Lea", "scalerank": 8, "rank_max": 7, "coordinates": [-93.368704, 43.647787]},
	{"name": "Willmar", "nameascii": "Willmar", "scalerank": 8, "rank_max": 6, "coordinates": [-95.043305, 45.121883]},
	{"name": "Brainerd", "nameascii": "Brainerd", "scalerank": 8, "rank_max": 7, "coordinates": [-94.20085, 46.358009]},
	{"name": "Crookston", "nameascii": "Crookston", "scalerank": 8, "rank_max": 5, "coordinates": [-96.607731, 47.773762]},
	{"name": "Hardin", "nameascii": "Hardin", "scalerank": 8, "rank_max": 4, "coordinates": [-107.612486, 45.731768]},
	{"name": "Glendive", "nameascii": "Glendive", "scalerank": 8, "rank_max": 5, "coordinates": [-104.710493, 47.108583]},
	{"name": "Dillon", "nameascii": "Dillon", "scalerank": 8, "rank_max": 4, "coordinates": [-112.683985, 45.215676]},
	{"name": "Polson", "nameascii": "Polson", "scalerank": 8, "rank_max": 5, "coordinates": [-114.156686, 47.688005]},
	{"name": "Devils Lake", "nameascii": "Devils Lake", "scalerank": 8, "rank_max": 5, "coordinates": [-98.859687, 48.112217]},
	{"name": "Burley", "nameascii": "Burley", "scalerank": 8, "rank_max": 6, "coordinates": [-113.791876, 42.535813]},
	{"name": "Wallace", "nameascii": "Wallace", "scalerank": 8, "rank_max": 3, "coordinates": [-115.926888, 47.47422]},
	{"name": "Kennewick", "nameascii": "Kennewick", "scalerank": 8, "rank_max": 9, "coordinates": [-119.136098, 46.211377]},
	{"name": "Centralia", "nameascii": "Centralia", "scalerank": 8, "rank_max": 6, "coordinates": [-122.952971, 46.716411]},
	{"name": "Glendale", "nameascii": "Glendale", "scalerank": 8, "rank_max": 10, "coordinates": [-112.195824, 33.581941]},
	{"name": "Safford", "nameascii": "Safford", "scalerank": 8, "rank_max": 6, "coordinates": [-109.70688, 32.833821]},
	{"name": "Casa Grande", "nameascii": "Casa Grande", "scalerank": 8, "rank_max": 7, "coordinates": [-111.756626, 32.879374]},
	{"name": "Mesa", "nameascii": "Mesa", "scalerank": 8, "rank_max": 12, "coordinates": [-111.736084, 33.423915]},
	{"name": "Lake Havasu City", "nameascii": "Lake Havasu City", "scalerank": 8, "rank_max": 8, "coordinates": [-114.308279, 34.498294]},
	{"name": "Berkeley", "nameascii": "Berkeley", "scalerank": 8, "rank_max": 10, "coordinates": [-122.271152, 37.873901]},
	{"name": "National City", "nameascii": "National City", "scalerank": 8, "rank_max": 9, "coordinates": [-117.098005, 32.671945]},
	{"name": "Mendocino", "nameascii": "Mendocino", "scalerank": 8, "rank_max": 2, "coordinates": [-123.799431, 39.307767]},
	{"name": "Paso Robles", "nameascii": "Paso Robles", "scalerank": 8, "rank_max": 7, "coordinates": [-120.689982, 35.626597]},
	{"name": "Riverside", "nameascii": "Riverside", "scalerank": 8, "rank_max": 10, "coordinates": [-117.398039, 33.941945]},
	{"name": "Delano", "nameascii": "Delano", "scalerank": 8, "rank_max": 7, "coordinates": [-119.243068, 35.761937]},
	{"name": "San Mateo", "nameascii": "San Mateo", "scalerank": 8, "rank_max": 11, "coordinates": [-122.313062, 37.556918]},
	{"name": "Vallejo", "nameascii": "Vallejo", "scalerank": 8, "rank_max": 9, "coordinates": [-122.258052, 38.111949]},
	{"name": "Glenwood Springs", "nameascii": "Glenwood Springs", "scalerank": 8, "rank_max": 6, "coordinates": [-107.3247, 39.54659]},
	{"name": "Aurora", "nameascii": "Aurora", "scalerank": 8, "rank_max": 11, "coordinates": [-104.808497, 39.695857]},
	{"name": "Greeley", "nameascii": "Greeley", "scalerank": 8, "rank_max": 9, "coordinates": [-104.739974, 40.419198]},
	{"name": "Tonopah", "nameascii": "Tonopah", "scalerank": 8, "rank_max": 4, "coordinates": [-117.228979, 38.06699]},
	{"name": "Deming", "nameascii": "Deming", "scalerank": 8, "rank_max": 6, "coordinates": [-107.755785, 32.261092]},
	{"name": "Truth or Consequences", "nameascii": "Truth or Consequences", "scalerank": 8, "rank_max": 5, "coordinates": [-107.252896, 33.133596]},
	{"name": "Las Vegas", "nameascii": "Las Vegas", "scalerank": 8, "rank_max": 6, "coordinates": [-105.222503, 35.597012]},
	{"name": "Farmington", "nameascii": "Farmington", "scalerank": 8, "rank_max": 7, "coordinates": [-108.186094, 36.754151]},
	{"name": "Springfield", "nameascii": "Springfield", "scalerank": 8, "rank_max": 8, "coordinates": [-122.978034, 44.051948]},
	{"name": "Tillamook", "nameascii": "Tillamook", "scalerank": 8, "rank_max": 5, "coordinates": [-123.842503, 45.455247]},
	{"name": "Ontario", "nameascii": "Ontario", "scalerank": 8, "rank_max": 6, "coordinates": [-116.96189, 44.026627]},
	{"name": "La Grande", "nameascii": "La Grande", "scalerank": 8, "rank_max": 6, "coordinates": [-118.086601, 45.324687]},
	{"name": "Richfield", "nameascii": "Richfield", "scalerank": 8, "rank_max": 5, "coordinates": [-112.083298, 38.772477]},
	{"name": "Nephi", "nameascii": "Nephi", "scalerank": 8, "rank_max": 5, "coordinates": [-111.835484, 39.710275]},
	{"name": "Lander", "nameascii": "Lander", "scalerank": 8, "rank_max": 5, "coordinates": [-108.732599, 42.833004]},
	{"name": "Powell", "nameascii": "Powell", "scalerank": 8, "rank_max": 5, "coordinates": [-108.758437, 44.758675]},
	{"name": "Paragould", "nameascii": "Paragould", "scalerank": 8, "rank_max": 7, "coordinates": [-90.502884, 36.057087]},
	{"name": "Iowa City", "nameascii": "Iowa City", "scalerank": 8, "rank_max": 8, "coordinates": [-91.529979, 41.661086]},
	{"name": "Ottumwa", "nameascii": "Ottumwa", "scalerank": 8, "rank_max": 7, "coordinates": [-92.414809, 41.012883]},
	{"name": "Spencer", "nameascii": "Spencer", "scalerank": 8, "rank_max": 6, "coordinates": [-95.147175, 43.145285]},
	{"name": "Ft. Dodge", "nameascii": "Ft. Dodge", "scalerank": 8, "rank_max": 7, "coordinates": [-94.180257, 42.506823]},
	{"name": "Hutchinson", "nameascii": "Hutchinson", "scalerank": 8, "rank_max": 7, "coordinates": [-97.923491, 38.065492]},
	{"name": "Kansas City", "nameascii": "Kansas City", "scalerank": 8, "rank_max": 11, "coordinates": [-94.630146, 39.113581]},
	{"name": "Lawrence", "nameascii": "Lawrence", "scalerank": 8, "rank_max": 8, "coordinates": [-95.25523, 38.959752]},
	{"name": "Garden City", "nameascii": "Garden City", "scalerank": 8, "rank_max": 7, "coordinates": [-100.864087, 37.975213]},
	{"name": "Manhattan", "nameascii": "Manhattan", "scalerank": 8, "rank_max": 8, "coordinates": [-96.592435, 39.194028]},
	{"name": "Hays", "nameascii": "Hays", "scalerank": 8, "rank_max": 7, "coordinates": [-99.322191, 38.87937]},
	{"name": "Goodland", "nameascii": "Goodland", "scalerank": 8, "rank_max": 4, "coordinates": [-101.711037, 39.348488]},
	{"name": "Independence", "nameascii": "Independence", "scalerank": 8, "rank_max": 9, "coordinates": [-94.415281, 39.091114]},
	{"name": "Kirksville", "nameascii": "Kirksville", "scalerank": 8, "rank_max": 6, "coordinates": [-92.582809, 40.193682]},
	{"name": "Kearney", "nameascii": "Kearney", "scalerank": 8, "rank_max": 7, "coordinates": [-99.081146, 40.700706]},
	{"name": "Grand Island", "nameascii": "Grand Island", "scalerank": 8, "rank_max": 7, "coordinates": [-98.357986, 40.922268]},
	{"name": "Alliance", "nameascii": "Alliance", "scalerank": 8, "rank_max": 5, "coordinates": [-102.870192, 42.101395]},
	{"name": "Bartlesville", "nameascii": "Bartlesville", "scalerank": 8, "rank_max": 7, "coordinates": [-95.980586, 36.7472]},
	{"name": "Enid", "nameascii": "Enid", "scalerank": 8, "rank_max": 7, "coordinates": [-97.878093, 36.395542]},
	{"name": "Ardmore", "nameascii": "Ardmore", "scalerank": 8, "rank_max": 7, "coordinates": [-97.129405, 34.181078]},
	{"name": "McAlester", "nameascii": "McAlester", "scalerank": 8, "rank_max": 7, "coordinates": [-95.765974, 34.932996]},
	{"name": "Stillwater", "nameascii": "Stillwater", "scalerank": 8, "rank_max": 7, "coordinates": [-97.068298, 36.135351]},
	{"name": "Lead", "nameascii": "Lead", "scalerank": 8, "rank_max": 4, "coordinates": [-103.76577, 44.350845]},
	{"name": "Slidell", "nameascii": "Slidell", "scalerank": 8, "rank_max": 8, "coordinates": [-89.781094, 30.27496]},
	{"name": "Lake Charles", "nameascii": "Lake Charles", "scalerank": 8, "rank_max": 8, "coordinates": [-93.217189, 30.226384]},
	{"name": "Metairie", "nameascii": "Metairie", "scalerank": 8, "rank_max": 10, "coordinates": [-90.152777, 29.983866]},
	{"name": "New Iberia", "nameascii": "New Iberia", "scalerank": 8, "rank_max": 7, "coordinates": [-91.818308, 30.003581]},
	{"name": "Bryan", "nameascii": "Bryan", "scalerank": 8, "rank_max": 9, "coordinates": [-96.369684, 30.674186]},
	{"name": "San Marcos", "nameascii": "San Marcos", "scalerank": 8, "rank_max": 8, "coordinates": [-97.941113, 29.883071]},
	{"name": "Longview", "nameascii": "Longview", "scalerank": 8, "rank_max": 8, "coordinates": [-94.740274, 32.500534]},
	{"name": "McAllen", "nameascii": "McAllen", "scalerank": 8, "rank_max": 10, "coordinates": [-98.229725, 26.203038]},
	{"name": "Harlingen", "nameascii": "Harlingen", "scalerank": 8, "rank_max": 9, "coordinates": [-97.690198, 26.19756]},
	{"name": "Alice", "nameascii": "Alice", "scalerank": 8, "rank_max": 7, "coordinates": [-98.070485, 27.750463]},
	{"name": "New Braunfels", "nameascii": "New Braunfels", "scalerank": 8, "rank_max": 7, "coordinates": [-98.126321, 29.697811]},
	{"name": "Cleburne", "nameascii": "Cleburne", "scalerank": 8, "rank_max": 7, "coordinates": [-97.39249, 32.351525]},
	{"name": "Brownwood", "nameascii": "Brownwood", "scalerank": 8, "rank_max": 7, "coordinates": [-98.982315, 31.707895]},
	{"name": "Alpine", "nameascii": "Alpine", "scalerank": 8, "rank_max": 5, "coordinates": [-103.665001, 30.360717]},
	{"name": "Van Horn", "nameascii": "Van Horn", "scalerank": 8, "rank_max": 4, "coordinates": [-104.832242, 31.042484]},
	{"name": "Big Spring", "nameascii": "Big Spring", "scalerank": 8, "rank_max": 7, "coordinates": [-101.475186, 32.243186]},
	{"name": "Vernon", "nameascii": "Vernon", "scalerank": 8, "rank_max": 6, "coordinates": [-99.290384, 34.151054]},
	{"name": "Childress", "nameascii": "Childress", "scalerank": 8, "rank_max": 5, "coordinates": [-100.21392, 34.424887]},
	{"name": "Hereford", "nameascii": "Hereford", "scalerank": 8, "rank_max": 6, "coordinates": [-102.398592, 34.821917]},
	{"name": "Dalhart", "nameascii": "Dalhart", "scalerank": 8, "rank_max": 5, "coordinates": [-102.518611, 36.060808]},
	{"name": "Texas City", "nameascii": "Texas City", "scalerank": 8, "rank_max": 8, "coordinates": [-94.962767, 29.410878]},
	{"name": "Pasadena", "nameascii": "Pasadena", "scalerank": 8, "rank_max": 11, "coordinates": [-95.147743, 29.660863]},
	{"name": "Baytown", "nameascii": "Baytown", "scalerank": 8, "rank_max": 8, "coordinates": [-94.967728, 29.755844]},
	{"name": "Arlington", "nameascii": "Arlington", "scalerank": 8, "rank_max": 11, "coordinates": [-97.020239, 32.684761]},
	{"name": "Guasdualito", "nameascii": "Guasdualito", "scalerank": 8, "rank_max": 7, "coordinates": [-70.739982, 7.239983]},
	{"name": "Barinas", "nameascii": "Barinas", "scalerank": 8, "rank_max": 10, "coordinates": [-70.250012, 8.599978]},
	{"name": "Valera", "nameascii": "Valera", "scalerank": 8, "rank_max": 9, "coordinates": [-70.620015, 9.31996]},
	{"name": "Cabimas", "nameascii": "Cabimas", "scalerank": 8, "rank_max": 10, "coordinates": [-71.449991, 10.429995]},
	{"name": "Carora", "nameascii": "Carora", "scalerank": 8, "rank_max": 9, "coordinates": [-70.079997, 10.189984]},
	{"name": "Guanare", "nameascii": "Guanare", "scalerank": 8, "rank_max": 9, "coordinates": [-69.750017, 9.049976]},
	{"name": "New London", "nameascii": "New London", "scalerank": 8, "rank_max": 8, "coordinates": [-72.100028, 41.355524]},
	{"name": "Stamford", "nameascii": "Stamford", "scalerank": 8, "rank_max": 11, "coordinates": [-73.539191, 41.053346]},
	{"name": "Waterbury", "nameascii": "Waterbury", "scalerank": 8, "rank_max": 9, "coordinates": [-73.050022, 41.550008]},
	{"name": "New Bedford", "nameascii": "New Bedford", "scalerank": 8, "rank_max": 9, "coordinates": [-70.944698, 41.656125]},
	{"name": "Springfield", "nameascii": "Springfield", "scalerank": 8, "rank_max": 10, "coordinates": [-72.579999, 42.120025]},
	{"name": "Salem", "nameascii": "Salem", "scalerank": 8, "rank_max": 10, "coordinates": [-70.883092, 42.522499]},
	{"name": "Pittsfield", "nameascii": "Pittsfield", "scalerank": 8, "rank_max": 7, "coordinates": [-73.259828, 42.448196]},
	{"name": "Montpelier", "nameascii": "Montpelier", "scalerank": 8, "rank_max": 5, "coordinates": [-72.575813, 44.259972]},
	{"name": "Auburn", "nameascii": "Auburn", "scalerank": 8, "rank_max": 8, "coordinates": [-85.48084, 32.609701]},
	{"name": "Florence", "nameascii": "Florence", "scalerank": 8, "rank_max": 7, "coordinates": [-87.677243, 34.799696]},
	{"name": "Winter Haven", "nameascii": "Winter Haven", "scalerank": 8, "rank_max": 9, "coordinates": [-81.733006, 28.021919]},
	{"name": "Melbourne", "nameascii": "Melbourne", "scalerank": 8, "rank_max": 10, "coordinates": [-80.60832, 28.08331]},
	{"name": "Homestead", "nameascii": "Homestead", "scalerank": 8, "rank_max": 8, "coordinates": [-80.477786, 25.468302]},
	{"name": "Sanford", "nameascii": "Sanford", "scalerank": 8, "rank_max": 10, "coordinates": [-81.279985, 28.78996]},
	{"name": "Miami Beach", "nameascii": "Miami Beach", "scalerank": 8, "rank_max": 10, "coordinates": [-80.131781, 25.80992]},
	{"name": "Coral Springs", "nameascii": "Coral Springs", "scalerank": 8, "rank_max": 10, "coordinates": [-80.270822, 26.270837]},
	{"name": "Port Charlotte", "nameascii": "Port Charlotte", "scalerank": 8, "rank_max": 8, "coordinates": [-82.105697, 27.000043]},
	{"name": "Spring Hill", "nameascii": "Spring Hill", "scalerank": 8, "rank_max": 9, "coordinates": [-82.547711, 28.478945]},
	{"name": "Palm Coast", "nameascii": "Palm Coast", "scalerank": 8, "rank_max": 7, "coordinates": [-81.223296, 29.538002]},
	{"name": "Palatka", "nameascii": "Palatka", "scalerank": 8, "rank_max": 7, "coordinates": [-81.651306, 29.647685]},
	{"name": "Leesburg", "nameascii": "Leesburg", "scalerank": 8, "rank_max": 7, "coordinates": [-81.883333, 28.810501]},
	{"name": "Lake City", "nameascii": "Lake City", "scalerank": 8, "rank_max": 7, "coordinates": [-82.639747, 30.189719]},
	{"name": "Crestview", "nameascii": "Crestview", "scalerank": 8, "rank_max": 7, "coordinates": [-86.572608, 30.754207]},
	{"name": "Panama City", "nameascii": "Panama City", "scalerank": 8, "rank_max": 9, "coordinates": [-85.655273, 30.15861]},
	{"name": "Dalton", "nameascii": "Dalton", "scalerank": 8, "rank_max": 8, "coordinates": [-84.970302, 34.769724]},
	{"name": "Marietta", "nameascii": "Marietta", "scalerank": 8, "rank_max": 8, "coordinates": [-84.543248, 33.955613]},
	{"name": "Waycross", "nameascii": "Waycross", "scalerank": 8, "rank_max": 6, "coordinates": [-82.354906, 31.213817]},
	{"name": "La Grange", "nameascii": "La Grange", "scalerank": 8, "rank_max": 7, "coordinates": [-85.031875, 33.036471]},
	{"name": "Southaven", "nameascii": "Southaven", "scalerank": 8, "rank_max": 9, "coordinates": [-90.003458, 34.968911]},
	{"name": "Meridian", "nameascii": "Meridian", "scalerank": 8, "rank_max": 7, "coordinates": [-88.703614, 32.364186]},
	{"name": "Laurel", "nameascii": "Laurel", "scalerank": 8, "rank_max": 7, "coordinates": [-89.139273, 31.697379]},
	{"name": "Spartanburg", "nameascii": "Spartanburg", "scalerank": 8, "rank_max": 9, "coordinates": [-81.932271, 34.949429]},
	{"name": "Orangeburg", "nameascii": "Orangeburg", "scalerank": 8, "rank_max": 7, "coordinates": [-80.862233, 33.496804]},
	{"name": "Galesburg", "nameascii": "Galesburg", "scalerank": 8, "rank_max": 7, "coordinates": [-90.371084, 40.947771]},
	{"name": "Joliet", "nameascii": "Joliet", "scalerank": 8, "rank_max": 11, "coordinates": [-88.106674, 41.529983]},
	{"name": "Cape Girardeau", "nameascii": "Cape Girardeau", "scalerank": 8, "rank_max": 7, "coordinates": [-89.518087, 37.305822]},
	{"name": "Rockford", "nameascii": "Rockford", "scalerank": 8, "rank_max": 10, "coordinates": [-89.06969, 42.269705]},
	{"name": "Evanston", "nameascii": "Evanston", "scalerank": 8, "rank_max": 10, "coordinates": [-87.699955, 42.048349]},
	{"name": "Rock Island", "nameascii": "Rock Island", "scalerank": 8, "rank_max": 9, "coordinates": [-90.534614, 41.493396]},
	{"name": "Elgin", "nameascii": "Elgin", "scalerank": 8, "rank_max": 10, "coordinates": [-88.289919, 42.039461]},
	{"name": "Richmond", "nameascii": "Richmond", "scalerank": 8, "rank_max": 7, "coordinates": [-84.890281, 39.828898]},
	{"name": "Terre Haute", "nameascii": "Terre Haute", "scalerank": 8, "rank_max": 8, "coordinates": [-87.413874, 39.466647]},
	{"name": "Lafayette", "nameascii": "Lafayette", "scalerank": 8, "rank_max": 9, "coordinates": [-86.878248, 40.417209]},
	{"name": "Marion", "nameascii": "Marion", "scalerank": 8, "rank_max": 7, "coordinates": [-85.659175, 40.558337]},
	{"name": "South Bend", "nameascii": "South Bend", "scalerank": 8, "rank_max": 10, "coordinates": [-86.250017, 41.683307]},
	{"name": "New Albany", "nameascii": "New Albany", "scalerank": 8, "rank_max": 9, "coordinates": [-85.821284, 38.310877]},
	{"name": "Elkhart", "nameascii": "Elkhart", "scalerank": 8, "rank_max": 9, "coordinates": [-85.968794, 41.682945]},
	{"name": "Hopkinsville", "nameascii": "Hopkinsville", "scalerank": 8, "rank_max": 7, "coordinates": [-87.488624, 36.865488]},
	{"name": "London", "nameascii": "London", "scalerank": 8, "rank_max": 5, "coordinates": [-84.083354, 37.128882]},
	{"name": "Madisonville", "nameascii": "Madisonville", "scalerank": 8, "rank_max": 7, "coordinates": [-87.502215, 37.332746]},
	{"name": "Rocky Mount", "nameascii": "Rocky Mount", "scalerank": 8, "rank_max": 8, "coordinates": [-77.790766, 35.937999]},
	{"name": "Salisbury", "nameascii": "Salisbury", "scalerank": 8, "rank_max": 7, "coordinates": [-80.474478, 35.67078]},
	{"name": "Durham", "nameascii": "Durham", "scalerank": 8, "rank_max": 10, "coordinates": [-78.92, 35.999959]},
	{"name": "Lumberton", "nameascii": "Lumberton", "scalerank": 8, "rank_max": 7, "coordinates": [-79.011906, 34.6272]},
	{"name": "Zanesville", "nameascii": "Zanesville", "scalerank": 8, "rank_max": 7, "coordinates": [-82.013325, 39.940287]},
	{"name": "Mansfield", "nameascii": "Mansfield", "scalerank": 8, "rank_max": 8, "coordinates": [-82.515542, 40.758325]},
	{"name": "Bowling Green", "nameascii": "Bowling Green", "scalerank": 8, "rank_max": 7, "coordinates": [-83.65139, 41.374747]},
	{"name": "Springfield", "nameascii": "Springfield", "scalerank": 8, "rank_max": 8, "coordinates": [-83.799986, 39.920004]},
	{"name": "Lancaster", "nameascii": "Lancaster", "scalerank": 8, "rank_max": 7, "coordinates": [-82.605304, 39.719215]},
	{"name": "Johnson City", "nameascii": "Johnson City", "scalerank": 8, "rank_max": 8, "coordinates": [-82.353614, 36.313325]},
	{"name": "Kingsport", "nameascii": "Kingsport", "scalerank": 8, "rank_max": 8, "coordinates": [-82.561948, 36.548323]},
	{"name": "Columbia", "nameascii": "Columbia", "scalerank": 8, "rank_max": 9, "coordinates": [-87.035267, 35.614995]},
	{"name": "Barlett", "nameascii": "Barlett", "scalerank": 8, "rank_max": 10, "coordinates": [-89.84109, 35.2229]},
	{"name": "Blacksburg", "nameascii": "Blacksburg", "scalerank": 8, "rank_max": 8, "coordinates": [-80.414198, 37.229419]},
	{"name": "Harrisonburg", "nameascii": "Harrisonburg", "scalerank": 8, "rank_max": 7, "coordinates": [-78.869176, 38.449422]},
	{"name": "Petersburg", "nameascii": "Petersburg", "scalerank": 8, "rank_max": 9, "coordinates": [-77.402237, 37.227765]},
	{"name": "Hampton", "nameascii": "Hampton", "scalerank": 8, "rank_max": 10, "coordinates": [-76.34995, 37.030025]},
	{"name": "Sheboygan", "nameascii": "Sheboygan", "scalerank": 8, "rank_max": 8, "coordinates": [-87.714424, 43.75083]},
	{"name": "Waukesha", "nameascii": "Waukesha", "scalerank": 8, "rank_max": 10, "coordinates": [-88.231369, 43.01165]},
	{"name": "La Crosse", "nameascii": "La Crosse", "scalerank": 8, "rank_max": 8, "coordinates": [-91.239429, 43.801369]},
	{"name": "Eau Claire", "nameascii": "Eau Claire", "scalerank": 8, "rank_max": 8, "coordinates": [-91.498353, 44.811359]},
	{"name": "Tomah", "nameascii": "Tomah", "scalerank": 8, "rank_max": 6, "coordinates": [-90.503892, 43.985053]},
	{"name": "Janesville", "nameascii": "Janesville", "scalerank": 8, "rank_max": 8, "coordinates": [-89.021579, 42.682626]},
	{"name": "Appleton", "nameascii": "Appleton", "scalerank": 8, "rank_max": 10, "coordinates": [-88.400506, 44.268679]},
	{"name": "Parkersburg", "nameascii": "Parkersburg", "scalerank": 8, "rank_max": 8, "coordinates": [-81.561647, 39.266659]},
	{"name": "White Sulphur Springs", "nameascii": "White Sulphur Springs", "scalerank": 8, "rank_max": 4, "coordinates": [-80.303481, 37.79388]},
	{"name": "Clarksburg", "nameascii": "Clarksburg", "scalerank": 8, "rank_max": 7, "coordinates": [-80.336916, 39.283273]},
	{"name": "Dover", "nameascii": "Dover", "scalerank": 8, "rank_max": 8, "coordinates": [-75.524703, 39.158087]},
	{"name": "St. Charles", "nameascii": "St. Charles", "scalerank": 8, "rank_max": 8, "coordinates": [-76.938932, 38.603056]},
	{"name": "Annapolis", "nameascii": "Annapolis", "scalerank": 8, "rank_max": 8, "coordinates": [-76.492499, 38.97833]},
	{"name": "Hagerstown", "nameascii": "Hagerstown", "scalerank": 8, "rank_max": 8, "coordinates": [-77.72028, 39.641649]},
	{"name": "Paterson", "nameascii": "Paterson", "scalerank": 8, "rank_max": 9, "coordinates": [-74.170005, 40.919995]},
	{"name": "Saratoga Springs", "nameascii": "Saratoga Springs", "scalerank": 8, "rank_max": 8, "coordinates": [-73.785016, 43.082963]},
	{"name": "Poughkeepsie", "nameascii": "Poughkeepsie", "scalerank": 8, "rank_max": 9, "coordinates": [-73.921416, 41.700231]},
	{"name": "Plattsburgh", "nameascii": "Plattsburgh", "scalerank": 8, "rank_max": 7, "coordinates": [-73.457982, 44.694984]},
	{"name": "Beaver Falls", "nameascii": "Beaver Falls", "scalerank": 8, "rank_max": 9, "coordinates": [-80.319423, 40.751943]},
	{"name": "Altoona", "nameascii": "Altoona", "scalerank": 8, "rank_max": 8, "coordinates": [-78.394967, 40.518598]},
	{"name": "Williamsport", "nameascii": "Williamsport", "scalerank": 8, "rank_max": 8, "coordinates": [-77.001383, 41.241086]},
	{"name": "Lancaster", "nameascii": "Lancaster", "scalerank": 8, "rank_max": 10, "coordinates": [-76.305766, 40.037775]},
	{"name": "Allentown", "nameascii": "Allentown", "scalerank": 8, "rank_max": 10, "coordinates": [-75.500028, 40.599988]},
	{"name": "Puerto la Cruz", "nameascii": "Puerto la Cruz", "scalerank": 8, "rank_max": 11, "coordinates": [-64.680016, 10.169959]},
	{"name": "Anaco", "nameascii": "Anaco", "scalerank": 8, "rank_max": 9, "coordinates": [-64.460004, 9.440004]},
	{"name": "Los Teques", "nameascii": "Los Teques", "scalerank": 8, "rank_max": 10, "coordinates": [-67.020028, 10.41997]},
	{"name": "Valle de la Pascua", "nameascii": "Valle de la Pascua", "scalerank": 8, "rank_max": 8, "coordinates": [-66.019986, 9.209992]},
	{"name": "Ocumare del Tuy", "nameascii": "Ocumare del Tuy", "scalerank": 8, "rank_max": 9, "coordinates": [-66.779991, 10.119988]},
	{"name": "Carúpano", "nameascii": "Carupano", "scalerank": 8, "rank_max": 9, "coordinates": [-63.230001, 10.670006]},
	{"name": "San Fernando", "nameascii": "San Fernando", "scalerank": 8, "rank_max": 9, "coordinates": [-61.459377, 10.280462]},
	{"name": "Brownsweg", "nameascii": "Brownsweg", "scalerank": 8, "rank_max": 4, "coordinates": [-55.169951, 5.020015]},
	{"name": "Moengo", "nameascii": "Moengo", "scalerank": 8, "rank_max": 5, "coordinates": [-54.409997, 5.630004]},
	{"name": "Nieuw Amsterdam", "nameascii": "Nieuw Amsterdam", "scalerank": 8, "rank_max": 4, "coordinates": [-55.070008, 5.909987]},
	{"name": "Waterville", "nameascii": "Waterville", "scalerank": 8, "rank_max": 7, "coordinates": [-69.645785, 44.551892]},
	{"name": "Calais", "nameascii": "Calais", "scalerank": 8, "rank_max": 4, "coordinates": [-67.242392, 45.165989]},
	{"name": "Houlton", "nameascii": "Houlton", "scalerank": 8, "rank_max": 5, "coordinates": [-67.83972, 46.125517]},
	{"name": "Benton Harbor", "nameascii": "Benton Harbor", "scalerank": 8, "rank_max": 8, "coordinates": [-86.454191, 42.11664]},
	{"name": "Battle Creek", "nameascii": "Battle Creek", "scalerank": 8, "rank_max": 8, "coordinates": [-85.179747, 42.321098]},
	{"name": "Bay City", "nameascii": "Bay City", "scalerank": 8, "rank_max": 8, "coordinates": [-83.888895, 43.594457]},
	{"name": "Alpena", "nameascii": "Alpena", "scalerank": 8, "rank_max": 6, "coordinates": [-83.432696, 45.061602]},
	{"name": "Iron Mountain", "nameascii": "Iron Mountain", "scalerank": 8, "rank_max": 6, "coordinates": [-88.064093, 45.82246]},
	{"name": "Ironwood", "nameascii": "Ironwood", "scalerank": 8, "rank_max": 5, "coordinates": [-90.159391, 46.455807]},
	{"name": "Marbella", "nameascii": "Marbella", "scalerank": 8, "rank_max": 9, "coordinates": [-4.88333, 36.51662]},
	{"name": "Linares", "nameascii": "Linares", "scalerank": 8, "rank_max": 8, "coordinates": [-3.633355, 38.08332]},
	{"name": "Algeciras", "nameascii": "Algeciras", "scalerank": 8, "rank_max": 9, "coordinates": [-5.46653, 36.126712]},
	{"name": "León", "nameascii": "Leon", "scalerank": 8, "rank_max": 9, "coordinates": [-5.570007, 42.579971]},
	{"name": "Mataró", "nameascii": "Mataro", "scalerank": 8, "rank_max": 9, "coordinates": [2.450021, 41.539957]},
	{"name": "Latakia", "nameascii": "Al Ladhiqiyah", "scalerank": 8, "rank_max": 11, "coordinates": [35.779976, 35.539987]},
	{"name": "Madinat ath Thawrah", "nameascii": "Madinat ath Thawrah", "scalerank": 8, "rank_max": 8, "coordinates": [38.548076, 35.836661]},
	{"name": "Izaz", "nameascii": "Izaz", "scalerank": 8, "rank_max": 7, "coordinates": [37.044085, 36.588786]},
	{"name": "Manbij", "nameascii": "Manbij", "scalerank": 8, "rank_max": 9, "coordinates": [37.956329, 36.526645]},
	{"name": "Idlib", "nameascii": "Idlib", "scalerank": 8, "rank_max": 9, "coordinates": [36.631655, 35.929705]},
	{"name": "Al Qamishli", "nameascii": "Al Qamishli", "scalerank": 8, "rank_max": 9, "coordinates": [41.229979, 37.030025]},
	{"name": "Al Hasakah", "nameascii": "Al Hasakah", "scalerank": 8, "rank_max": 9, "coordinates": [40.750009, 36.483289]},
	{"name": "Douma", "nameascii": "Douma", "scalerank": 8, "rank_max": 10, "coordinates": [36.39999, 33.583336]},
	{"name": "Dhamar", "nameascii": "Dhamar", "scalerank": 8, "rank_max": 9, "coordinates": [44.387461, 14.557469]},
	{"name": "Ibb", "nameascii": "Ibb", "scalerank": 8, "rank_max": 10, "coordinates": [44.170885, 13.975851]},
	{"name": "Chur", "nameascii": "Chur", "scalerank": 8, "rank_max": 7, "coordinates": [9.50003, 46.85002]},
	{"name": "Sand Point", "nameascii": "Sand Point", "scalerank": 8, "rank_max": 2, "coordinates": [-160.497191, 55.339709]},
	{"name": "Hydaburg", "nameascii": "Hydaburg", "scalerank": 8, "rank_max": 2, "coordinates": [-132.800639, 55.21398]},
	{"name": "Mekoryuk", "nameascii": "Mekoryuk", "scalerank": 8, "rank_max": 1, "coordinates": [-166.189937, 60.388647]},
	{"name": "Atqasuk", "nameascii": "Atqasuk", "scalerank": 8, "rank_max": 2, "coordinates": [-157.395778, 70.46938]},
	{"name": "Port Heiden", "nameascii": "Port Heiden", "scalerank": 8, "rank_max": 1, "coordinates": [-158.626892, 56.949094]},
	{"name": "Perryville", "nameascii": "Perryville", "scalerank": 8, "rank_max": 1, "coordinates": [-159.151149, 55.918614]},
	{"name": "Dillingham", "nameascii": "Dillingham", "scalerank": 8, "rank_max": 4, "coordinates": [-158.480312, 59.05656]},
	{"name": "Goodnews Bay", "nameascii": "Goodnews Bay", "scalerank": 8, "rank_max": 2, "coordinates": [-161.58713, 59.120993]},
	{"name": "Nyac", "nameascii": "Nyac", "scalerank": 8, "rank_max": 1, "coordinates": [-159.940481, 61.004143]},
	{"name": "Tununak", "nameascii": "Tununak", "scalerank": 8, "rank_max": 2, "coordinates": [-165.255789, 60.585487]},
	{"name": "Mountain Village", "nameascii": "Mountain Village", "scalerank": 8, "rank_max": 2, "coordinates": [-163.729009, 62.085524]},
	{"name": "Emmonak", "nameascii": "Emmonak", "scalerank": 8, "rank_max": 1, "coordinates": [-164.522992, 62.776981]},
	{"name": "Kaltag", "nameascii": "Kaltag", "scalerank": 8, "rank_max": 1, "coordinates": [-158.721899, 64.327196]},
	{"name": "Teller", "nameascii": "Teller", "scalerank": 8, "rank_max": 1, "coordinates": [-166.360786, 65.263599]},
	{"name": "Koyukuk", "nameascii": "Koyukuk", "scalerank": 8, "rank_max": 1, "coordinates": [-157.70085, 64.880289]},
	{"name": "Kobuk", "nameascii": "Kobuk", "scalerank": 8, "rank_max": 1, "coordinates": [-156.880977, 66.907246]},
	{"name": "Selawik", "nameascii": "Selawik", "scalerank": 8, "rank_max": 2, "coordinates": [-160.009391, 66.603879]},
	{"name": "Talkeetna", "nameascii": "Talkeetna", "scalerank": 8, "rank_max": 3, "coordinates": [-150.109427, 62.323779]},
	{"name": "Whittier", "nameascii": "Whittier", "scalerank": 8, "rank_max": 1, "coordinates": [-148.67768, 60.784157]},
	{"name": "Montana", "nameascii": "Montana", "scalerank": 8, "rank_max": 1, "coordinates": [-150.072763, 62.079685]},
	{"name": "Lake Minchumina", "nameascii": "Lake Minchumina", "scalerank": 8, "rank_max": 1, "coordinates": [-152.312187, 63.882831]},
	{"name": "Cantwell", "nameascii": "Cantwell", "scalerank": 8, "rank_max": 2, "coordinates": [-148.95079, 63.391595]},
	{"name": "Gulkana", "nameascii": "Gulkana", "scalerank": 8, "rank_max": 1, "coordinates": [-145.382196, 62.271353]},
	{"name": "Eagle", "nameascii": "Eagle", "scalerank": 8, "rank_max": 1, "coordinates": [-141.199997, 64.787995]},
	{"name": "Nenana", "nameascii": "Nenana", "scalerank": 8, "rank_max": 1, "coordinates": [-149.093003, 64.563797]},
	{"name": "Big Delta", "nameascii": "Big Delta", "scalerank": 8, "rank_max": 2, "coordinates": [-145.842194, 64.15253]},
	{"name": "Allakaket", "nameascii": "Allakaket", "scalerank": 8, "rank_max": 1, "coordinates": [-152.6455, 66.565483]},
	{"name": "Tanana", "nameascii": "Tanana", "scalerank": 8, "rank_max": 2, "coordinates": [-152.07879, 65.171873]},